name,address,location,price,cuisine,longitude,latitude,award,greenstar,country,city,is_global_hub,is_native,restaurant_density,star_level,recog_level,is_starred,award_level
ES:SENZ,"Mietenkamer Straße 65, Grassau, 83224, Germany","Grassau, Germany",4,"Creative, Modern Cuisine",12.4656176,47.7856302,3 Stars,0,Germany,Grassau,0,0,0,3,0,1,5
Tohru in der Schreiberei,"Burgstraße 5, Munich, 80331, Germany","Munich, Germany",4,"Modern Cuisine, Japanese Contemporary",11.577475,48.137597,3 Stars,0,Germany,Munich,0,0,61,3,0,1,5
Schwarzwaldstube,"Tonbachstraße 237, Baiersbronn, 72270, Germany","Baiersbronn, Germany",4,"Classic French, Creative",8.3582803,48.5369113,3 Stars,0,Germany,Baiersbronn,0,0,5,3,0,1,5
Victor's Fine Dining by christian bau,"Schlossstraße 27, Perl, 66706, Germany","Perl, Germany",4,"Creative, Contemporary",6.3872109,49.5351732,3 Stars,0,Germany,Perl,0,0,1,3,0,1,5
Aqua,"Parkstraße 1, Wolfsburg, 38440, Germany","Wolfsburg, Germany",4,"Creative, Modern Cuisine",10.7899785,52.4328494,3 Stars,0,Germany,Wolfsburg,0,0,2,3,0,1,5
schanz. restaurant.,"Bahnhofstraße 8a, Piesport, 54498, Germany","Piesport, Germany",4,"Modern French, Creative",6.9266002,49.8776003,3 Stars,0,Germany,Piesport,0,0,0,3,0,1,5
Restaurant Haerlin,"Neuer Jungfernstieg 9, Hamburg, 20354, Germany","Hamburg, Germany",4,"Creative French, Classic Cuisine",9.9914638,53.5554424,3 Stars,0,Germany,Hamburg,0,0,46,3,0,1,5
The Table Kevin Fehling,"Shanghaiallee 15, Hamburg, 20457, Germany","Hamburg, Germany",4,"Creative, International",10.0028597,53.5426398,3 Stars,0,Germany,Hamburg,0,0,42,3,0,1,5
Waldhotel Sonnora,"Auf'm Eichelfeld 1, Dreis, 54518, Germany","Dreis, Germany",4,Classic French,6.8109342,49.9377323,3 Stars,0,Germany,Dreis,0,0,0,3,0,1,5
JAN,"Luisenstraße 27, Munich, 80333, Germany","Munich, Germany",4,"Creative, Modern Cuisine",11.5629878,48.1447975,3 Stars,0,Germany,Munich,0,0,60,3,0,1,5
Restaurant Bareiss,"Hermine-Bareiss-Weg 1, Baiersbronn, 72270, Germany","Baiersbronn, Germany",4,"Classic French, Seasonal Cuisine",8.3268245,48.5201324,3 Stars,0,Germany,Baiersbronn,0,0,6,3,0,1,5
Rutz,"Chausseestraße 8, Berlin, 10115, Germany","Berlin, Germany",4,"Modern Cuisine, Creative",13.3860867,52.5283507,3 Stars,1,Germany,Berlin,0,0,52,3,0,1,5
Maaemo,"Dronning Eufemias gate 23, Oslo, 0194, Norway","Oslo, Norway",4,Creative,10.7586363,59.9075293,3 Stars,1,Norway,Oslo,0,0,28,3,0,1,5
RE-NAA,"Nordbøgata 8, Stavanger, 4006, Norway","Stavanger, Norway",4,"Creative, Seafood",5.7308447,58.9739705,3 Stars,0,Norway,Stavanger,0,0,7,3,0,1,5
Frantzen,"Klara Norra Kyrkogata 26, Stockholm, 111 22, Sweden","Stockholm, Sweden",4,Creative,18.0597575,59.3341673,3 Stars,0,Sweden,Stockholm,0,0,40,3,0,1,5
Jordnær,"Gentoftegade 29, Gentofte, 2820, Denmark","Gentofte, Denmark",4,Creative,12.5412347,55.7481416,3 Stars,0,Denmark,Gentofte,0,0,2,3,0,1,5
Geranium,"Per Henrik Lings Allé 4, Parken National Stadium, Copenhagen, 2100 Ø, Denmark","Copenhagen, Denmark",4,"Creative, Contemporary",12.5720951,55.703472,3 Stars,0,Denmark,Copenhagen,0,0,62,3,0,1,5
Hisa Franko,"Staro selo 1, Kobarid, 5222, Slovenia","Kobarid, Slovenia",4,"Creative, Regional Cuisine",13.5378132,46.247312,3 Stars,1,Slovenia,Kobarid,0,0,0,3,0,1,5
Tresind Studio,"St. Regis Gardens, The Palm Jumeirah, Dubai",Dubai,4,Indian,55.1391176,25.114932,3 Stars,0,Dubai,Dubai,1,0,34,3,0,1,5
Grande Etoile,"Bastionstraße 16, Düsseldorf, 40213, Germany","Düsseldorf, Germany",3,"Modern Cuisine, French",6.775079,51.221634,Selected Restaurants,0,Germany,Düsseldorf,0,0,24,0,1,0,1
Goldener Engel,"Bachenstraße 27, Ihringen, 79241, Germany","Ihringen, Germany",2,Regional Cuisine,7.6472096,48.0439756,Selected Restaurants,0,Germany,Ihringen,0,0,1,0,1,0,1
Chiemgauhof,"Julius-Exter-Promenade 21, Übersee, 83236, Germany","Übersee, Germany",3,"Farm to table, Regional Cuisine",12.4757464,47.8468221,Selected Restaurants,0,Germany,Übersee,0,0,1,0,1,0,1
Chefs Atelier,"Im Löwental 60A, Essen, 45239, Germany","Essen, Germany",4,"Creative, Seasonal Cuisine",6.9957349,51.3836464,1 Star,0,Germany,Essen,0,0,3,1,0,1,3
FZN by Bjorn Frantzen,"Atlantis The Palm Jumeirah, Crescent Road, Dubai",Dubai,4,Modern Cuisine,55.1182319,25.1320377,3 Stars,0,Dubai,Dubai,1,0,16,3,0,1,5
Boury,"Rumbeeksesteenweg 300, Roeselare, 8800, Belgium","Roeselare, Belgium",4,Creative French,3.1403981,50.9374466,3 Stars,0,Belgium,Roeselare,0,0,5,3,0,1,5
Zilte,"Hanzestedenplaats 5, Antwerpen, 2000, Belgium","Antwerpen, Belgium",4,Creative,4.4047543,51.228828,3 Stars,0,Belgium,Antwerpen,0,0,48,3,0,1,5
Le Louis XV - Alain Ducasse a l'Hotel de Paris,"Place du Casino, Monaco, 98000, Principality of Monaco","Monaco, Principality of Monaco",4,"Mediterranean Cuisine, Modern Cuisine",7.4271047,43.7391839,3 Stars,0,Principality of Monaco,Monaco,0,0,17,3,0,1,5
L'Ambroisie,"9 place des Vosges, Paris, 75004, France","Paris, France",4,Classic Cuisine,2.3645215,48.855494,3 Stars,0,France,Paris,1,1,388,3,0,1,5
Flocons de Sel,"1775 route du Leutaz, Le Leutaz, Megève, 74120, France","Megève, France",4,Modern Cuisine,6.5969625,45.8302404,3 Stars,0,France,Megève,0,0,11,3,0,1,5
Epicure,"Le Bristol, 112 rue du Faubourg-Saint-Honoré, Paris, 75008, France","Paris, France",4,Modern Cuisine,2.3145978,48.8717223,3 Stars,0,France,Paris,1,0,423,3,0,1,5
Arpege,"84 rue de Varenne, Paris, 75007, France","Paris, France",4,Creative,2.3170127,48.8557538,3 Stars,1,France,Paris,1,0,446,3,0,1,5
Le Pre Catelan,"Route de Suresnes - bois de Boulogne, Paris, 75016, France","Paris, France",4,"Creative, Contemporary",2.2507182,48.8639374,3 Stars,0,France,Paris,1,0,152,3,0,1,5
Le Cinq,"Four Seasons Hotel George V, 31 avenue George-V, Paris, 75008, France","Paris, France",4,Modern Cuisine,2.3008612,48.8687604,3 Stars,0,France,Paris,1,0,391,3,0,1,5
Le Petit Nice,"17 rue des Braves (Anse de Maldormé), Marseille, 13007, France","Marseille, France",4,Seafood,5.3520484,43.2802565,3 Stars,0,France,Marseille,0,0,26,3,0,1,5
Kei,"5 rue Coq-Héron, Paris, 75001, France","Paris, France",4,"Modern Cuisine, Creative",2.3422847,48.8643947,3 Stars,0,France,Paris,1,0,455,3,0,1,5
L'Oustau de Baumaniere,"500 route de Baumanière, Les Baux-de-Provence, 13520, France","Les Baux-de-Provence, France",4,Creative,4.7873628,43.7402659,3 Stars,1,France,Les Baux-de-Provence,0,0,6,3,0,1,5
Plenitude - Cheval Blanc Paris,"Cheval Blanc Paris, 8 quai du Louvre, Paris, 75001, France","Paris, France",4,Creative,2.3421588,48.8588148,3 Stars,0,France,Paris,1,0,456,3,0,1,5
AM par Alexandre Mazzia,"9 rue François-Rocca, Marseille, 13008, France","Marseille, France",4,Creative,5.3862325,43.2701104,3 Stars,0,France,Marseille,0,0,26,3,0,1,5
Pic,"285 avenue Victor-Hugo, Valence, 26000, France","Valence, France",4,Creative,4.8855601,44.9176875,3 Stars,0,France,Valence,0,0,7,3,0,1,5
Maison Lameloise,"36 place d'Armes, Chagny, 71150, France","Chagny, France",4,Modern Cuisine,4.7529917,46.9078385,3 Stars,0,France,Chagny,0,0,4,3,0,1,5
Le Coquillage,"Lieu-dit Le Buot, Saint-Méloir-des-Ondes, 35350, France","Saint-Méloir-des-Ondes, France",4,"Creative, Seafood",-1.8711232,48.6430654,3 Stars,1,France,Saint-Méloir-des-Ondes,0,0,6,3,0,1,5
Restaurant Marcon,"Larsiallas, 18 chemin de Brard, Saint-Bonnet-le-Froid, 43290, France","Saint-Bonnet-le-Froid, France",4,Creative,4.4342679,45.1386734,3 Stars,1,France,Saint-Bonnet-le-Froid,0,0,2,3,0,1,5
Pierre Gagnaire,"6 rue Balzac, Paris, 75008, France","Paris, France",4,Creative,2.3003493,48.8732731,3 Stars,0,France,Paris,1,0,382,3,0,1,5
La Vague d'Or - Cheval Blanc St-Tropez,"Plage de la Bouillabaisse, Saint-Tropez, 83990, France","Saint-Tropez, France",4,Creative,6.6261535,43.2665849,3 Stars,0,France,Saint-Tropez,0,0,12,3,0,1,5
Christopher Coutanceau,"Plage de la Concurrence, La Rochelle, 17000, France","La Rochelle, France",4,"Seafood, Modern Cuisine",-1.1599181,46.1553629,3 Stars,1,France,La Rochelle,0,0,10,3,0,1,5
Troisgros - Le Bois sans Feuilles,"728 route de Villerest, Ouches, 42155, France","Ouches, France",4,Creative,3.99236,46.01033,3 Stars,1,France,Ouches,0,0,3,3,0,1,5
La Marine,"3 rue Marie-Lemonnier, L'Herbaudière, 85330, France","L'Herbaudière, France",4,"Creative, Seafood",-2.2999341,47.0237104,3 Stars,1,France,L'Herbaudière,0,0,2,3,0,1,5
Le Clos des Sens,"13 rue Jean-Mermoz - à Annecy-le-Vieux, Annecy, 74940, France","Annecy, France",4,Creative,6.1445765,45.9176317,3 Stars,1,France,Annecy,0,0,22,3,0,1,5
La Villa Madie,"Avenue de Revestel, Cassis, 13260, France","Cassis, France",4,Creative,5.544944,43.2110889,3 Stars,0,France,Cassis,0,0,2,3,0,1,5
Assiette Champenoise,"40 avenue Paul-Vaillant-Couturier, à Tinqueux, Reims, 51430, France","Reims, France",4,"Creative, Modern Cuisine",4.0032666,49.2478347,3 Stars,0,France,Reims,0,0,11,3,0,1,5
Mirazur,"30 avenue Aristide-Briand, Menton, 06500, France","Menton, France",4,Creative,7.5280514,43.7859304,3 Stars,1,France,Menton,0,0,3,3,0,1,5
Les Pres d'Eugenie - Michel Guerard,"Place de l'Impératrice, Eugénie-les-Bains, 40320, France","Eugénie-les-Bains, France",4,Classic Cuisine,-0.3802543,43.6958026,3 Stars,0,France,Eugénie-les-Bains,0,1,2,3,0,1,5
Auberge du Vieux Puits,"5 avenue Saint-Victor, Fontjoncouse, 11360, France","Fontjoncouse, France",4,Creative,2.7893292,43.0481728,3 Stars,0,France,Fontjoncouse,0,0,0,3,0,1,5
Alleno Paris au Pavillon Ledoyen,"8 avenue Dutuit, Paris, 75008, France","Paris, France",4,Creative,2.3164993,48.8660932,3 Stars,0,France,Paris,1,0,439,3,0,1,5
Le 1947 a Cheval Blanc,"Cheval Blanc, Le Jardin Alpin, Courchevel 1850, Courchevel, 73120, France","Courchevel, France",4,Creative,6.6338696,45.4094877,3 Stars,0,France,Courchevel,0,0,14,3,0,1,5
HAJIME,"1-9-11 Edobori, Nishi-ku, Osaka, 550-0002, Japan","Osaka, Japan",4,Innovative,135.496084,34.688612,3 Stars,0,Japan,Osaka,0,0,244,3,0,1,5
Taian,"1-21-2 Shimanochi, Chuo-ku, Osaka, 542-0082, Japan","Osaka, Japan",3,Japanese,135.507205,34.673353,3 Stars,0,Japan,Osaka,0,1,244,3,0,1,5
Mizai,"613 Maruyamacho, Higashiyama-ku, Kyoto, 605-0071, Japan","Kyoto, Japan",4,Japanese,135.782364,35.002993,3 Stars,0,Japan,Kyoto,0,1,226,3,0,1,5
Gion Sasaki,"566-27 Komatsucho, Higashiyama-ku, Kyoto, 605-0811, Japan","Kyoto, Japan",4,Japanese,135.775049,34.998881,3 Stars,0,Japan,Kyoto,0,1,222,3,0,1,5
Isshisoden Nakamura,"136 Matsushitacho, Nakagyo-ku, Kyoto, 604-8093, Japan","Kyoto, Japan",4,Japanese,135.765083,35.010397,3 Stars,0,Japan,Kyoto,0,1,240,3,0,1,5
Kashiwaya Osaka Senriyama,"2-5-18 Senriyamanishi, Suita, Osaka, 565-0851, Japan","Osaka, Japan",3,Japanese,135.501289,34.770287,3 Stars,1,Japan,Osaka,0,1,2,3,0,1,5
Hyotei,"35 Nanzenji Kusagawacho, Sakyo-ku, Kyoto, 606-8437, Japan","Kyoto, Japan",4,Japanese,135.786742,35.011355,3 Stars,0,Japan,Kyoto,0,1,232,3,0,1,5
Kikunoi Honten,"459 Shimokawaracho, Higashiyama-ku, Kyoto, 605-0825, Japan","Kyoto, Japan",4,Japanese,135.782079,35.001535,3 Stars,0,Japan,Kyoto,0,1,225,3,0,1,5
Ta Vie,"2F, The Pottinger Hotel, 21 Stanley Street, Central, Hong Kong, Hong Kong SAR China","Hong Kong, Hong Kong SAR China",4,Innovative,114.15529,22.282766,3 Stars,0,Hong Kong SAR China,Hong Kong,1,0,186,3,0,1,5
Caprice,"6F, Four Seasons Hotel, 8 Finance Street, Central, Hong Kong, Hong Kong SAR China","Hong Kong, Hong Kong SAR China",4,French Contemporary,114.1566097,22.2866489,3 Stars,0,Hong Kong SAR China,Hong Kong,1,0,192,3,0,1,5
Robuchon au Dome,"43F, Grand Lisboa Hotel, Avenida de Lisboa, Macau, Macau",Macau,4,French Contemporary,113.54395,22.189949,3 Stars,0,Macau,Macau,0,0,37,3,0,1,5
T'ang Court,"1-2F, The Langham Hotel, 8 Peking Road, Tsim Sha Tsui, Hong Kong, Hong Kong SAR China","Hong Kong, Hong Kong SAR China",3,Cantonese,114.1698,22.296572,3 Stars,0,Hong Kong SAR China,Hong Kong,1,1,196,3,0,1,5
Sushi Shikon,"7F, The Landmark Mandarin Oriental, 15 Queen's Road Central, Central, Hong Kong, Hong Kong SAR China","Hong Kong, Hong Kong SAR China",4,Sushi,114.1577893,22.2806103,3 Stars,0,Hong Kong SAR China,Hong Kong,1,0,184,3,0,1,5
Jade Dragon,"2F, The Shops at the Boulevard, City of Dreams, Estrada do Istmo, Cotai, Macau",Macau,3,Cantonese,113.56715,22.149137,3 Stars,0,Macau,Macau,0,1,40,3,0,1,5
8 1/2 Otto e Mezzo - Bombana,"Shop 202, 2F, Alexandra House, 18 Chater Road, Central, Hong Kong, Hong Kong SAR China","Hong Kong, Hong Kong SAR China",4,Italian,114.15867,22.2814635,3 Stars,0,Hong Kong SAR China,Hong Kong,1,0,185,3,0,1,5
Forum,"1F, Sino Plaza, 255-257 Gloucester Road, Causeway Bay, Hong Kong, Hong Kong SAR China","Hong Kong, Hong Kong SAR China",4,Cantonese,114.1821905,22.2813972,3 Stars,0,Hong Kong SAR China,Hong Kong,1,1,186,3,0,1,5
Amber,"7F, The Landmark Mandarin Oriental, 15 Queen's Road Central, Central, Hong Kong, Hong Kong SAR China","Hong Kong, Hong Kong SAR China",4,French Contemporary,114.1577065,22.2805311,3 Stars,1,Hong Kong SAR China,Hong Kong,1,0,184,3,0,1,5
Mingles,"2F, 19 Dosan-daero 67-gil, Gangnam-gu, Seoul, 06016, South Korea","Seoul, South Korea",4,Korean,127.04426,37.52535,3 Stars,0,South Korea,Seoul,0,1,108,3,0,1,5
Steirereck im Stadtpark,"Am Heumarkt 2a, Vienna, 1030, Austria","Vienna, Austria",4,"Creative, Contemporary",16.3815669,48.2043967,3 Stars,0,Austria,Vienna,0,0,63,3,0,1,5
Amador,"Grinzinger Straße 86, Vienna, 1190, Austria","Vienna, Austria",4,"Creative, Contemporary",16.3587755,48.2539993,3 Stars,0,Austria,Vienna,0,0,25,3,0,1,5
ATAMA by Martin Stopp,"Ensheimer Straße 20, Sankt Ingbert, 66386, Germany","Sankt Ingbert, Germany",4,"Creative, Contemporary",7.11203,49.27289,2 Stars,0,Germany,Sankt Ingbert,0,0,2,2,0,1,4
IKIGAI,"Elmau 2, Krün, 82493, Germany","Krün, Germany",4,"Modern Cuisine, Asian Contemporary",11.186197,47.4621643,2 Stars,0,Germany,Krün,0,0,0,2,0,1,4
Ox & Klee,"Im Zollhafen 18, Cologne, 50678, Germany","Cologne, Germany",4,"Modern Cuisine, Creative",6.9658846,50.9272801,2 Stars,0,Germany,Cologne,0,0,26,2,0,1,4
Gotthardt's by Yannick Noack,"An der Fähre 3, Koblenz, 56068, Germany","Koblenz, Germany",4,"Modern Cuisine, Creative",7.5598451,50.3580498,2 Stars,0,Germany,Koblenz,0,0,2,2,0,1,4
OPUS V,"O5, 9-12, Mannheim, 68161, Germany","Mannheim, Germany",4,"Modern Cuisine, Creative",8.4697743,49.4857999,2 Stars,0,Germany,Mannheim,0,0,3,2,0,1,4
Ophelia,"Seestraße 25, Constance, 78464, Germany","Constance, Germany",4,"Creative French, International",9.187565,47.6673977,2 Stars,0,Germany,Constance,0,0,6,2,0,1,4
Tantris,"Johann-Fichte-Straße 7, Munich, 80805, Germany","Munich, Germany",4,"French Contemporary, Classic Cuisine",11.588259,48.1697565,2 Stars,0,Germany,Munich,0,0,58,2,0,1,4
Alois - Dallmayr Fine Dining,"Dienerstraße 14, Munich, 80331, Germany","Munich, Germany",4,"Creative, Modern Cuisine",11.5771585,48.1383054,2 Stars,0,Germany,Munich,0,0,61,2,0,1,4
sein,"Scheffelstraße 57, Karlsruhe, 76135, Germany","Karlsruhe, Germany",4,"Modern Cuisine, Creative",8.3818129,49.006215,2 Stars,0,Germany,Karlsruhe,0,0,6,2,0,1,4
Intense,"Weinstraße 31, Wachenheim an der Weinstraße, 67157, Germany","Wachenheim an der Weinstraße, Germany",4,"Fusion, Creative",8.1820048,49.4385482,2 Stars,0,Germany,Wachenheim an der Weinstraße,0,0,7,2,0,1,4
Jante,"Marienstraße 116, Hanover, 30171, Germany","Hanover, Germany",4,"Creative, Modern Cuisine",9.7607965,52.3702201,2 Stars,0,Germany,Hanover,0,0,6,2,0,1,4
Votum,"Hannah-Arendt-Platz 1, Hanover, 30159, Germany","Hanover, Germany",4,"Creative, Modern Cuisine",9.7354833,52.3700102,2 Stars,0,Germany,Hanover,0,0,6,2,0,1,4
100/200 Kitchen,"Brandshofer Deich 68, Hamburg, 20539, Germany","Hamburg, Germany",4,"Creative, Modern Cuisine",10.0285764,53.5374323,2 Stars,1,Germany,Hamburg,0,0,26,2,0,1,4
Le Cerf,"Kärcherstr. 11, Zweiflingen, 74639, Germany","Zweiflingen, Germany",4,Classic French,9.5258355,49.2436455,2 Stars,0,Germany,Zweiflingen,0,0,0,2,0,1,4
Hirschen,"Hauptstraße 69, Sulzburg, 79295, Germany","Sulzburg, Germany",4,"Creative, Seasonal Cuisine",7.7088806,47.8404612,2 Stars,0,Germany,Sulzburg,0,0,7,2,0,1,4
LOUIS restaurant,"Prälat-Subtil-Ring 22, Saarlouis, 66740, Germany","Saarlouis, Germany",4,"Modern French, Asian",6.7552911,49.3172819,2 Stars,0,Germany,Saarlouis,0,0,1,2,0,1,4
Oswald's Gourmetstube,"Am Platzl 2, Teisnach, 94244, Germany","Teisnach, Germany",4,"Modern French, Contemporary",13.0296421,49.0134357,2 Stars,0,Germany,Teisnach,0,0,0,2,0,1,4
Gourmetrestaurant Dichter,"Aribostraße 19, Rottach-Egern, 83700, Germany","Rottach-Egern, Germany",4,"Modern Cuisine, Creative French",11.7538484,47.6941309,2 Stars,0,Germany,Rottach-Egern,0,0,7,2,0,1,4
Le Pavillon,"Dollenberg 3, Bad Peterstal, 77740, Germany","Bad Peterstal, Germany",4,"Classic French, Seasonal Cuisine",8.2507048,48.4574092,2 Stars,0,Germany,Bad Peterstal,0,0,1,2,0,1,4
Osch Noir,"Golfplatz 1, Donaueschingen, 78166, Germany","Donaueschingen, Germany",4,"Modern Cuisine, Classic Cuisine",8.5471151,47.9655184,2 Stars,0,Germany,Donaueschingen,0,0,1,2,0,1,4
Coeur D'Artichaut,"Alter Fischmarkt 11A, Münster, 48143, Germany","Münster, Germany",4,"Modern French, Creative",7.6294251,51.9638925,2 Stars,0,Germany,Münster,0,0,4,2,0,1,4
Pietsch,"Breite Straße 53a, Wernigerode, 38855, Germany","Wernigerode, Germany",4,"Creative, Asian Contemporary",10.7890106,51.8352945,2 Stars,0,Germany,Wernigerode,0,0,1,2,0,1,4
PUR,"Hintereck 1, Berchtesgaden, 83471, Germany","Berchtesgaden, Germany",4,"Modern Cuisine, Contemporary",13.0468265,47.6340765,2 Stars,0,Germany,Berchtesgaden,0,0,5,2,0,1,4
AURA by Alexander Herrmann & Tobias Batz,"Marktplatz 11, Wirsberg, 95339, Germany","Wirsberg, Germany",4,"Creative, Modern Cuisine",11.6069241,50.1073707,2 Stars,1,Germany,Wirsberg,0,0,1,2,0,1,4
ammolite - The Lighthouse Restaurant,"Peter-Thumb-Straße 6, Rust, 77977, Germany","Rust, Germany",4,"Modern Cuisine, Classic French",7.7251226,48.259724,2 Stars,0,Germany,Rust,0,0,1,2,0,1,4
GasteHaus Klaus Erfort,"Mainzer Straße 95, Saarbrücken, 66121, Germany","Saarbrücken, Germany",4,Classic French,7.0076258,49.2295502,2 Stars,0,Germany,Saarbrücken,0,0,5,2,0,1,4
Esplanade,"Nauwieserstraße 5, Saarbrücken, 66111, Germany","Saarbrücken, Germany",4,"Classic Cuisine, Creative",6.9996028,49.2349097,2 Stars,0,Germany,Saarbrücken,0,0,5,2,0,1,4
Essigbratlein,"Weinmarkt 3, Nuremberg, 90403, Germany","Nuremberg, Germany",4,"Innovative, Farm to table",11.0748188,49.455062,2 Stars,1,Germany,Nuremberg,0,0,15,2,0,1,4
Lakeside,"Fontenay 10, Hamburg, 20354, Germany","Hamburg, Germany",4,Modern Cuisine,9.9980345,53.565225,2 Stars,0,Germany,Hamburg,0,0,46,2,0,1,4
Lafleur,"Palmengartenstraße 11, Frankfurt on the Main, 60325, Germany","Frankfurt on the Main, Germany",4,"Modern French, Creative",8.6565825,50.1214911,2 Stars,0,Germany,Frankfurt on the Main,0,0,23,2,0,1,4
Sol'ring Hof,"Am Sandwall 1, Rantum, 25980, Germany","Rantum, Germany",4,"Modern Cuisine, Creative",8.2887697,54.8536822,2 Stars,0,Germany,Rantum,0,0,1,2,0,1,4
Speisemeisterei,"Schloss Hohenheim 1B, Stuttgart, 70599, Germany","Stuttgart, Germany",4,"Creative, Innovative",9.2137792,48.712699,2 Stars,0,Germany,Stuttgart,0,0,2,2,0,1,4
Steinheuers Restaurant,"Landskroner Straße 110, Bad Neuenahr-Ahrweiler, 53474, Germany","Bad Neuenahr-Ahrweiler, Germany",4,"Classic French, Classic Cuisine",7.1642775,50.5509788,2 Stars,0,Germany,Bad Neuenahr-Ahrweiler,0,0,1,2,0,1,4
Obendorfers Eisvogel,"Hofenstetten 55, Neunburg vorm Wald, 92431, Germany","Neunburg vorm Wald, Germany",4,"Creative, Contemporary",12.261695,49.338408,2 Stars,0,Germany,Neunburg vorm Wald,0,0,1,2,0,1,4
Meierei Dirk Luther,"Uferstraße 1, Glücksburg, 24960, Germany","Glücksburg, Germany",4,Classic Cuisine,9.4999203,54.8225486,2 Stars,0,Germany,Glücksburg,0,0,5,2,0,1,4
CODA Dessert Dining,"Friedelstraße 47, Berlin, 12047, Germany","Berlin, Germany",4,"Creative, Innovative",13.4274391,52.4900681,2 Stars,0,Germany,Berlin,0,0,39,2,0,1,4
Tim Raue,"Rudi-Dutschke-Straße 26, Berlin, 10969, Germany","Berlin, Germany",4,"German, Asian Influences",13.3933841,52.5070342,2 Stars,0,Germany,Berlin,0,1,60,2,0,1,4
Vendome,"Kadettenstraße, Bergisch Gladbach, 51429, Germany","Bergisch Gladbach, Germany",4,"Creative, Classic French",7.1604778,50.9665691,2 Stars,0,Germany,Bergisch Gladbach,0,0,0,2,0,1,4
bianc,"Am Sandtorkai 50, Hamburg, 20457, Germany","Hamburg, Germany",4,"Mediterranean Cuisine, Creative",9.9943521,53.5430154,2 Stars,0,Germany,Hamburg,0,0,42,2,0,1,4
L.A. Jordan,"Ketschauerhofstraße 1, Deidesheim, 67146, Germany","Deidesheim, Germany",4,"Creative, Modern Cuisine",8.1850992,49.4076835,2 Stars,0,Germany,Deidesheim,0,0,7,2,0,1,4
Horvath,"Paul-Lincke-Ufer 44a, Berlin, 10999, Germany","Berlin, Germany",4,Creative,13.420793,52.4963922,2 Stars,1,Germany,Berlin,0,0,50,2,0,1,4
FACIL,"Potsdamer Straße 3, Berlin, 10785, Germany","Berlin, Germany",4,"Creative, Contemporary",13.3737404,52.5090625,2 Stars,0,Germany,Berlin,0,0,66,2,0,1,4
AUGUST,"Johannes-Haag-Straße 14, Augsburg, 86153, Germany","Augsburg, Germany",4,Creative,10.9126019,48.3710103,2 Stars,0,Germany,Augsburg,0,0,3,2,0,1,4
KOMU,"Hackenstraße 4, Munich, 80331, Germany","Munich, Germany",4,"Classic Cuisine, Modern Cuisine",11.5704952,48.1360691,2 Stars,0,Germany,Munich,0,0,61,2,0,1,4
Atelier,"Promenadeplatz 2, Munich, 80331, Germany","Munich, Germany",4,"Creative French, International",11.5735681,48.1402487,2 Stars,0,Germany,Munich,0,0,60,2,0,1,4
etz,"Wiesentalstraße 40, Nuremberg, 90419, Germany","Nuremberg, Germany",4,"Creative, Regional Cuisine",11.0537152,49.4575699,2 Stars,1,Germany,Nuremberg,0,0,15,2,0,1,4
PAZ,"Doktara Jakobsens gøta 14-16, Tórshavn, 100, Denmark","Tórshavn, Denmark",4,Creative,-6.775808,62.0101327,2 Stars,0,Denmark,Tórshavn,0,0,2,2,0,1,4
Alchemist,"Refshalevej 173C, Copenhagen, 1432 K, Denmark","Copenhagen, Denmark",4,Creative,12.6140984,55.6943425,2 Stars,1,Denmark,Copenhagen,0,0,56,2,0,1,4
a|o|c,"Dronningens Tværgade 2, Copenhagen, 1302 K, Denmark","Copenhagen, Denmark",4,Creative,12.5889875,55.6831927,2 Stars,0,Denmark,Copenhagen,0,0,60,2,0,1,4
Signum,"Hällsnäs Hotell, Långenäsvägen 150, Mölnlycke, 435 35, Sweden","Mölnlycke, Sweden",4,Creative,12.1786546,57.675447,2 Stars,1,Sweden,Mölnlycke,0,0,0,2,0,1,4
Koan,"Langeliniekaj 5, Copenhagen, 2100, Denmark","Copenhagen, Denmark",4,Creative,12.6001611,55.6954973,2 Stars,0,Denmark,Copenhagen,0,0,60,2,0,1,4
AIRA,"Biskopsvägen 9, Stockholm, 115 21, Sweden","Stockholm, Sweden",4,"Modern Cuisine, Swedish",18.1237288,59.3207155,2 Stars,0,Sweden,Stockholm,0,1,34,2,0,1,4
Frederikshøj,"Oddervej 19-21, Aarhus, 8000, Denmark","Aarhus, Denmark",4,Creative,10.2089264,56.124947,2 Stars,0,Denmark,Aarhus,0,0,8,2,0,1,4
Kadeau Copenhagen,"Wildersgade 10B, Copenhagen, 1408, Denmark","Copenhagen, Denmark",4,Creative,12.5888136,55.6722948,2 Stars,1,Denmark,Copenhagen,0,0,60,2,0,1,4
Kong Hans Kælder,"Vingaardsstraede 6, Copenhagen, 1070, Denmark","Copenhagen, Denmark",4,"Modern French, Seasonal Cuisine",12.5839958,55.6787423,2 Stars,0,Denmark,Copenhagen,0,0,60,2,0,1,4
Vollmers,"Tegelgårdsgatan 5, Malmo, 211 33, Sweden","Malmo, Sweden",4,Contemporary,12.9966201,55.6046461,2 Stars,0,Sweden,Malmo,0,0,10,2,0,1,4
Kontrast,"Maridalsveien 15, Oslo, 0175, Norway","Oslo, Norway",4,Scandinavian,10.7511251,59.922727,2 Stars,1,Norway,Oslo,0,1,28,2,0,1,4
Palace,"Eteläranta 10, Helsinki, 00130, Finland","Helsinki, Finland",4,Modern Cuisine,24.9523857,60.1653036,2 Stars,0,Finland,Helsinki,0,0,26,2,0,1,4
Henne Kirkeby Kro,"Strandvejen 234, Henne, 6854, Denmark","Henne, Denmark",4,Classic Cuisine,8.2423144,55.7270112,2 Stars,1,Denmark,Henne,0,0,0,2,0,1,4
Milka,"Vršiška cesta 45, Kranjska Gora, 4280, Slovenia","Kranjska Gora, Slovenia",4,"Creative, Regional Cuisine",13.7847333,46.4751488,2 Stars,0,Slovenia,Kranjska Gora,0,0,1,2,0,1,4
Bottiglieria 1881,"ul. Bocheńska 5, Kraków, 31 061, Poland","Kraków, Poland",4,Creative,19.9460552,50.0486603,2 Stars,0,Poland,Kraków,0,0,22,2,0,1,4
Pujol,"Tennyson 133, Polanco, Miguel Hildalgo, 11550, Mexico","Miguel Hildalgo, Mexico",4,"Mexican, Modern Cuisine",-99.1947841,19.4324232,2 Stars,0,Mexico,Miguel Hildalgo,0,1,65,2,0,1,4
Quintonil,"Isaac Newton 55, Polanco, Miguel Hildalgo, 11560, Mexico","Miguel Hildalgo, Mexico",4,"Mexican, Contemporary",-99.1916968,19.4310167,2 Stars,0,Mexico,Miguel Hildalgo,0,1,65,2,0,1,4
STAY by Yannick Alleno,"One&Only The Palm Hotel, West Crescent Road, The Palm Jumeirah, Dubai",Dubai,4,French,55.1326916,25.0992961,2 Stars,0,Dubai,Dubai,1,0,31,2,0,1,4
Il Ristorante-Niko Romito,"Bulgari Resort Dubai Hotel, Jumeirah Bay Island, Jumeirah 2, Dubai",Dubai,4,Italian,55.2348847,25.2104546,2 Stars,0,Dubai,Dubai,1,0,50,2,0,1,4
Row on 45,"45th Floor, Tower 2, Grosvenor House Hotel, Al Emreef Street, Dubai Marina, Dubai",Dubai,4,Creative,55.1435576,25.0861613,2 Stars,0,Dubai,Dubai,1,0,23,2,0,1,4
Taniere3,"7 rue du Don-de-Dieu, Québec, G1K 3Z6, Canada","Québec, Canada",4,Creative,-71.2022076,46.8135735,2 Stars,0,Canada,Québec,0,0,25,2,0,1,4
akordu,"70-1-3-1 Suimoncho, Nara, Nara, 630-8208, Japan","Nara, Japan",3,Innovative,135.835467,34.68575,2 Stars,0,Japan,Nara,0,0,39,2,0,1,4
Oryori Hanagaki,"2-13-2 Gakuen Minami, Nara, Nara, 631-0034, Japan","Nara, Japan",4,Japanese,135.753435,34.692643,2 Stars,0,Japan,Nara,0,1,15,2,0,1,4
Tsukumo,"968 Kideracho, Nara, Nara, 630-8306, Japan","Nara, Japan",4,Japanese,135.834095,34.675974,2 Stars,0,Japan,Nara,0,1,38,2,0,1,4
NARA NIKON,"3 Nabeyacho, Nara, Nara, 630-8264, Japan","Nara, Japan",3,Japanese,135.829383,34.686899,2 Stars,0,Japan,Nara,0,1,39,2,0,1,4
Oro,"Avenida General San Martin 889, Rio de Janeiro, 22441-015, Brazil","Rio de Janeiro, Brazil",4,Creative,-43.22471,-22.98601,2 Stars,0,Brazil,Rio de Janeiro,0,0,32,2,0,1,4
Evvai,"Rua Joaquim Antunes 108, São Paulo, 05415-000, Brazil","São Paulo, Brazil",4,"Modern Cuisine, Brazilian",-46.6790725,-23.5670869,2 Stars,0,Brazil,São Paulo,0,1,90,2,0,1,4
D.O.M.,"Rua Barão de Capanema 549, São Paulo, 01411-011, Brazil","São Paulo, Brazil",4,Creative,-46.667572,-23.5661451,2 Stars,0,Brazil,São Paulo,0,0,92,2,0,1,4
Lasai,"Largo dos Leões 35, Humaitá, Rio de Janeiro, 22260-210, Brazil","Rio de Janeiro, Brazil",4,"Modern Cuisine, Innovative",-43.1964089,-22.9532398,2 Stars,0,Brazil,Rio de Janeiro,0,0,40,2,0,1,4
Tuju,"Rua Frei Galvão, 135, São Paulo, 01454-060, Brazil","São Paulo, Brazil",4,Creative,-46.6855567,-23.5805339,2 Stars,1,Brazil,São Paulo,0,0,81,2,0,1,4
Ru Yuan,"11 Yuquan Road, Xihu, Hangzhou, China Mainland","Hangzhou, China Mainland",4,Zhejiang,120.1174357,30.2556553,2 Stars,0,China Mainland,Hangzhou,0,0,34,2,0,1,4
Maison Colette,"De Trannoyplein 17, Tongerlo, 2260, Belgium","Tongerlo, Belgium",4,"French, Modern Cuisine",4.916895,51.1038295,2 Stars,0,Belgium,Tongerlo,0,0,1,2,0,1,4
Hertog Jan at Botanic,"Leopoldstraat 26, Antwerpen, 2000, Belgium","Antwerpen, Belgium",4,"Creative, Asian Influences",4.4054987,51.2145635,2 Stars,0,Belgium,Antwerpen,0,0,49,2,0,1,4
La Table de Maxime,"Our 23, Our, 6852, Belgium","Our, Belgium",4,"Modern Cuisine, French",5.1224546,49.9600036,2 Stars,0,Belgium,Our,0,0,0,2,0,1,4
L'air du temps,"rue de la Croix Monet 2, Liernu, 5310, Belgium","Liernu, Belgium",4,"Creative, Modern Cuisine",4.8329862,50.5927328,2 Stars,1,Belgium,Liernu,0,0,0,2,0,1,4
L'Eau Vive,"route de Floreffe 37, Arbre, 5170, Belgium","Arbre, Belgium",4,"Modern French, Modern Cuisine",4.8469885,50.3636851,2 Stars,0,Belgium,Arbre,0,0,5,2,0,1,4
Sir Kwinten,"Markt 9a, Sint-Kwintens-Lennik, 1750, Belgium","Sint-Kwintens-Lennik, Belgium",4,"Modern Cuisine, French",4.1554453,50.8056605,2 Stars,0,Belgium,Sint-Kwintens-Lennik,0,0,2,2,0,1,4
Slagmolen,"Molenweg 177, Opglabbeek, 3660, Belgium","Opglabbeek, Belgium",4,"Traditional Cuisine, French",5.6155142,51.0432542,2 Stars,0,Belgium,Opglabbeek,0,0,2,2,0,1,4
d'Eugenie a Emilie,"place de la Résistance 1, Baudour, 7331, Belgium","Baudour, Belgium",4,"Classic French, Traditional Cuisine",3.8379089,50.4833038,2 Stars,0,Belgium,Baudour,0,0,1,2,0,1,4
De Jonkman,"Maalsesteenweg 438, Sint-Kruis, 8310, Belgium","Sint-Kruis, Belgium",4,Creative,3.2782036,51.2077602,2 Stars,0,Belgium,Sint-Kruis,0,0,23,2,0,1,4
Cuchara,"Lepelstraat 3, Lommel, 3920, Belgium","Lommel, Belgium",4,"Creative, Modern Cuisine",5.3096729,51.231034,2 Stars,0,Belgium,Lommel,0,0,1,2,0,1,4
Ma Langue Sourit,"1 rue Remich, Oetrange, 5331, Luxembourg","Oetrange, Luxembourg",4,Modern Cuisine,6.2495447,49.5977462,2 Stars,0,Luxembourg,Oetrange,0,0,1,2,0,1,4
Lea Linster,"17 route de Luxembourg, Frisange, 5752, Luxembourg","Frisange, Luxembourg",4,Modern French,6.187337,49.51803,2 Stars,0,Luxembourg,Frisange,0,0,1,2,0,1,4
Vrijmoed,"Vlaanderenstraat 22, Gent, 9000, Belgium","Gent, Belgium",4,"Creative, Modern Cuisine",3.7288256,51.0511061,2 Stars,0,Belgium,Gent,0,0,20,2,0,1,4
Bozar Restaurant,"rue Baron Horta 3, Brussels, 1000, Belgium","Brussels, Belgium",4,"Modern French, Creative",4.359821,50.8442419,2 Stars,0,Belgium,Brussels,0,0,95,2,0,1,4
Nuance,"Kiliaanstraat 8, Duffel, 2570, Belgium","Duffel, Belgium",4,Creative,4.505835,51.0957136,2 Stars,0,Belgium,Duffel,0,0,0,2,0,1,4
Castor,"Kortrijkseweg 164, Beveren-Leie, 8791, Belgium","Beveren-Leie, Belgium",4,Modern French,3.3429009,50.8719025,2 Stars,0,Belgium,Beveren-Leie,0,0,1,2,0,1,4
Bartholomeus,"Zeedijk 267, Heist, 8301, Belgium","Heist, Belgium",4,Modern Cuisine,3.2436215,51.341769,2 Stars,0,Belgium,Heist,0,0,15,2,0,1,4
Hof van Cleve - Floris Van Der Veken,"Riemegemstraat 1, Kruishoutem, 9770, Belgium","Kruishoutem, Belgium",4,Creative,3.509638,50.9035909,2 Stars,0,Belgium,Kruishoutem,0,0,1,2,0,1,4
Le Chalet de la Foret,"drêve de Lorraine 43, Uccle, 1180, Belgium","Uccle, Belgium",4,"Creative, Modern French",4.3866247,50.7847298,2 Stars,0,Belgium,Uccle,0,0,41,2,0,1,4
La Paix,"rue Ropsy-Chaudron 49, Anderlecht, 1070, Belgium","Anderlecht, Belgium",4,"Asian Influences, Creative",4.3282651,50.8437191,2 Stars,0,Belgium,Anderlecht,0,0,89,2,0,1,4
L'Atelier de Joel Robuchon Miami,"151 N.E. 41st St., Miami, FL, 33137, USA","Miami, FL, USA",4,"French, Contemporary",-80.1921438,25.814444,2 Stars,0,USA,FL,0,0,24,2,0,1,4
Sorekara,"4979 New Broad St., Orlando, FL, 32814, USA","Orlando, FL, USA",4,"Japanese, Contemporary",-81.3259631,28.5689965,2 Stars,0,USA,FL,0,0,30,2,0,1,4
Aramburu,"Vicente López 1661, Buenos Aires, C1018ABA, Argentina","Buenos Aires, Argentina",4,Creative,-58.3891732,-34.5916443,2 Stars,0,Argentina,Buenos Aires,0,0,35,2,0,1,4
Rozo,"34 rue Raymond-Derain, Marcq-en-Barœul, 59700, France","Marcq-en-Barœul, France",4,"Creative, Modern Cuisine",3.0909516,50.6752,2 Stars,0,France,Marcq-en-Barœul,0,0,18,2,0,1,4
Villa Rene Lalique,"18 rue Bellevue, Wingen-sur-Moder, 67290, France","Wingen-sur-Moder, France",4,"Creative, Modern Cuisine",7.365027,48.9185,2 Stars,0,France,Wingen-sur-Moder,0,0,1,2,0,1,4
Le Jules Verne,"Tour Eiffel - 6 avenue Gustave-Eiffel, Paris, 75007, France","Paris, France",4,Modern Cuisine,2.29462,48.85756,2 Stars,0,France,Paris,1,0,389,2,0,1,4
Marsan par Helene Darroze,"4 rue d'Assas, Paris, 75006, France","Paris, France",4,Modern Cuisine,2.3279216,48.8499883,2 Stars,0,France,Paris,1,0,449,2,0,1,4
David Toutain,"29 rue Surcouf, Paris, 75007, France","Paris, France",4,Creative,2.3097038,48.8602663,2 Stars,1,France,Paris,1,0,422,2,0,1,4
L'Abysse Monte-Carlo,"Square Beaumarchais, Monaco, 98000, Principality of Monaco","Monaco, Principality of Monaco",4,Japanese,7.4259282,43.7384886,2 Stars,0,Principality of Monaco,Monaco,0,0,17,2,0,1,4
Le Taillevent,"15 rue Lamennais, Paris, 75008, France","Paris, France",4,Classic Cuisine,2.3024829,48.874195,2 Stars,0,France,Paris,1,1,385,2,0,1,4
Maison Aribert,"280 allée du Jeune-Bayard, Uriage-les-Bains, 38410, France","Uriage-les-Bains, France",4,"Creative, Modern Cuisine",5.8315479,45.1417394,2 Stars,1,France,Uriage-les-Bains,0,0,2,2,0,1,4
Table - Bruno Verjus,"3 rue de Prague, Paris, 75012, France","Paris, France",4,Modern Cuisine,2.3759654,48.8486151,2 Stars,1,France,Paris,1,0,315,2,0,1,4
Blue Bay Marcel Ravin,"40 avenue Princesse-Grace, Monaco, 98000, Principality of Monaco","Monaco, Principality of Monaco",4,Creative,7.4379746,43.7488966,2 Stars,0,Principality of Monaco,Monaco,0,0,16,2,0,1,4
L'Orangerie,"Four Seasons George V, 31 avenue George-V, Paris, 75008, France","Paris, France",4,Modern Cuisine,2.3008263,48.8687851,2 Stars,0,France,Paris,1,0,391,2,0,1,4
Le Grand Restaurant - Jean-Francois Piege,"7 rue d'Aguesseau, Paris, 75008, France","Paris, France",4,Creative,2.3193146,48.8701983,2 Stars,0,France,Paris,1,0,438,2,0,1,4
Guy Savoy,"11 quai de Conti, Paris, 75006, France","Paris, France",4,Modern Cuisine,2.3391955,48.8566248,2 Stars,0,France,Paris,1,0,456,2,0,1,4
Restaurant Le Meurice Alain Ducasse,"Le Meurice, 228 rue de Rivoli, Paris, 75001, France","Paris, France",4,Creative,2.3278399,48.86525,2 Stars,0,France,Paris,1,0,448,2,0,1,4
Relais de la Poste,"24 avenue de Maremne, Magescq, 40140, France","Magescq, France",4,Classic Cuisine,-1.2179647,43.7787343,2 Stars,0,France,Magescq,0,1,0,2,0,1,4
Paul Bocuse,"40 quai de la Plage, Collonges-au-Mont-d'Or, 69660, France","Collonges-au-Mont-d'Or, France",4,Classic Cuisine,4.8475623,45.8156437,2 Stars,0,France,Collonges-au-Mont-d'Or,0,1,11,2,0,1,4
Takao Takano,"33 rue Malesherbes, Lyon, 69006, France","Lyon, France",4,Creative,4.8426431,45.7704565,2 Stars,0,France,Lyon,0,0,84,2,0,1,4
Mere Brazier,"12 rue Royale, Lyon, 69001, France","Lyon, France",4,Classic Cuisine,4.8372034,45.7714309,2 Stars,0,France,Lyon,0,1,85,2,0,1,4
Le Pre - Xavier Beaudiment,"3 route de la Baraque, Clermont-Ferrand, 63000, France","Clermont-Ferrand, France",4,Creative,3.0519431,45.7886787,2 Stars,0,France,Clermont-Ferrand,0,0,17,2,0,1,4
JY'S,"3 allée du Champ-de-Mars, Colmar, 68000, France","Colmar, France",4,Creative,7.3533263,48.0755636,2 Stars,0,France,Colmar,0,0,10,2,0,1,4
Serge Vieira,"Le Couffour, Chaudes-Aigues, 15110, France","Chaudes-Aigues, France",4,Creative,3.0019613,44.8442761,2 Stars,1,France,Chaudes-Aigues,0,0,1,2,0,1,4
Sushi Yoshinaga,"27 rue du 4-Septembre, Paris, 75002, France","Paris, France",4,Japanese,2.3349558,48.8698375,2 Stars,0,France,Paris,1,0,446,2,0,1,4
Le Neuvieme Art,"173 rue Cuvier, Lyon, 69006, France","Lyon, France",4,"Creative, Modern Cuisine",4.8564194,45.767953,2 Stars,0,France,Lyon,0,0,84,2,0,1,4
Le Sarkara,"Le K2 Palace, 238 rue des Clarines, Courchevel 1850, Courchevel, 73120, France","Courchevel, France",4,Creative,6.638871,45.4122032,2 Stars,0,France,Courchevel,0,0,14,2,0,1,4
Le Skiff Club,"Hôtel Ha(a)ïtza, 1 avenue Louis-Gaume, Pyla-sur-Mer, 33115, France","Pyla-sur-Mer, France",4,Modern Cuisine,-1.20669,44.606014,2 Stars,1,France,Pyla-sur-Mer,0,0,0,2,0,1,4
La Table des Amis,"Le Mas Les Eydins, 2420 chemin du Four, Bonnieux, 84480, France","Bonnieux, France",4,Modern Cuisine,5.3018513,43.8511871,2 Stars,0,France,Bonnieux,0,0,5,2,0,1,4
Maison Benoit Vidal,"Sur-les-Bois, 79 route de Thônes, Annecy, 74940, France","Annecy, France",4,Creative,6.171891,45.9226978,2 Stars,0,France,Annecy,0,0,21,2,0,1,4
Jean Sulpice,"303 route du Port, Talloires-Montmin, 74290, France","Talloires-Montmin, France",4,Creative,6.210543,45.8393308,2 Stars,1,France,Talloires-Montmin,0,0,6,2,0,1,4
Duende,"Quai de la Fontaine, Nîmes, 30900, France","Nîmes, France",4,Modern Cuisine,4.3527079,43.8388191,2 Stars,0,France,Nîmes,0,0,9,2,0,1,4
Py-r,"19 descente de la Halle-aux-Poissons, Toulouse, 31000, France","Toulouse, France",4,Creative,1.4408583,43.599313,2 Stars,0,France,Toulouse,0,0,30,2,0,1,4
La Scene,"32 avenue Matignon, Paris, 75008, France","Paris, France",4,Modern Cuisine,2.3144577,48.8720059,2 Stars,0,France,Paris,1,0,422,2,0,1,4
Les Ambassadeurs by Christophe Cussac,"Hôtel Métropole Monte-Carlo, 4 avenue de la Madone, Monaco, 98000, Principality of Monaco","Monaco, Principality of Monaco",4,Mediterranean Cuisine,7.4275615,43.7405056,2 Stars,0,Principality of Monaco,Monaco,0,0,17,2,0,1,4
Les Morainieres,"1400 route de Marestel, Jongieux, 73170, France","Jongieux, France",4,"Creative, Modern Cuisine",5.7983813,45.7448198,2 Stars,0,France,Jongieux,0,0,1,2,0,1,4
La Pyramide - Maison Henriroux,"14 boulevard Fernand-Point, Vienne, 38200, France","Vienne, France",4,Modern Cuisine,4.8668625,45.5166376,2 Stars,0,France,Vienne,0,0,2,2,0,1,4
Cedric Burtin,"Chemin de Martorez, Saint-Rémy, 71100, France","Saint-Rémy, France",4,"Creative, Modern Cuisine",4.8204022,46.7567966,2 Stars,0,France,Saint-Rémy,0,0,3,2,0,1,4
La Merise,"7 rue d'Eschbach, Laubach, 67580, France","Laubach, France",4,Modern Cuisine,7.7224093,48.8800665,2 Stars,0,France,Laubach,0,0,1,2,0,1,4
Racine,"6 place Godinot, Reims, 51100, France","Reims, France",4,Creative,4.03752,49.2528607,2 Stars,0,France,Reims,0,0,11,2,0,1,4
Michel Kayser - Restaurant Alexandre,"2 rue Xavier-Tronc, Garons, 30128, France","Garons, France",4,Modern Cuisine,4.4229251,43.7679586,2 Stars,0,France,Garons,0,0,0,2,0,1,4
L'Oiseau Blanc,"The Peninsula Paris, 19 avenue Kléber, Paris, 75116, France","Paris, France",4,Creative,2.2933134,48.8707602,2 Stars,0,France,Paris,1,0,371,2,0,1,4
Maison Nouvelle,"11 rue Rode, Bordeaux, 33000, France","Bordeaux, France",4,Modern Cuisine,-0.5721376,44.8524805,2 Stars,0,France,Bordeaux,0,0,47,2,0,1,4
La Cote Saint-Jacques,"14 faubourg de Paris, Joigny, 89300, France","Joigny, France",4,Modern Cuisine,3.3853151,47.9833796,2 Stars,1,France,Joigny,0,0,1,2,0,1,4
La Table de Pavie,"Hôtel de Pavie, 5 place du Clocher, Saint-Emilion, 33330, France","Saint-Emilion, France",4,Creative,-0.1566263,44.8934495,2 Stars,0,France,Saint-Emilion,0,0,7,2,0,1,4
Blanc,"52 rue de Longchamp, Paris, 75116, France","Paris, France",4,Creative,2.2874808,48.8651172,2 Stars,0,France,Paris,1,0,359,2,0,1,4
La Table de Franck Putelat,"80 chemin des Anglais, au Sud de la Cité, Carcassonne, 11000, France","Carcassonne, France",4,"Modern Cuisine, Creative",2.3603104,43.2013363,2 Stars,0,France,Carcassonne,0,0,4,2,0,1,4
La Table de Yoann Conte,"13 vieille route des Pensières, Veyrier-du-Lac, 74290, France","Veyrier-du-Lac, France",4,Creative,6.1721868,45.8889235,2 Stars,1,France,Veyrier-du-Lac,0,0,22,2,0,1,4
Auberge de l'Ill,"2 rue de Collonges-au-Mont-d'Or, Illhaeusern, 68970, France","Illhaeusern, France",4,Classic Cuisine,7.433043,48.1844003,2 Stars,0,France,Illhaeusern,0,1,1,2,0,1,4
La Table d'Olivier Nasti,"9-13 rue du Général-de-Gaulle, Kaysersberg, 68240, France","Kaysersberg, France",4,Creative,7.265581,48.1386233,2 Stars,0,France,Kaysersberg,0,0,10,2,0,1,4
Anne de Bretagne,"Port de Gravette, 163 boulevard de la Tara, La Plaine-sur-Mer, 44770, France","La Plaine-sur-Mer, France",4,Creative,-2.2134222,47.1547317,2 Stars,0,France,La Plaine-sur-Mer,0,0,2,2,0,1,4
L'Auberge des Glazicks,"7 rue de la Plage, Plomodiern, 29550, France","Plomodiern, France",4,Creative,-4.2345193,48.1805696,2 Stars,0,France,Plomodiern,0,0,0,2,0,1,4
Ekaitza,"15 quai Maurice-Ravel, Ciboure, 64500, France","Ciboure, France",4,"Creative, Modern Cuisine",-1.6674639,43.3852589,2 Stars,0,France,Ciboure,0,0,11,2,0,1,4
L'Auberge de Saint-Remy - Fanny Rey & Jonathan Wahid,"12 boulevard Mirabeau, Saint-Rémy-de-Provence, 13210, France","Saint-Rémy-de-Provence, France",4,Modern Cuisine,4.8333205,43.7885608,2 Stars,0,France,Saint-Rémy-de-Provence,0,0,1,2,0,1,4
Rene et Maxime Meilleur,"Hameau de Saint-Marcel, Saint-Martin-de-Belleville, 73440, France","Saint-Martin-de-Belleville, France",4,"Creative, Regional Cuisine",6.513333,45.3690312,2 Stars,0,France,Saint-Martin-de-Belleville,0,0,1,2,0,1,4
Cyril Attrazic,"10 route du Languedoc, Aumont-Aubrac, 48130, France","Aumont-Aubrac, France",4,"Creative, Modern Cuisine",3.2877885,44.7169426,2 Stars,1,France,Aumont-Aubrac,0,0,1,2,0,1,4
La Villa Archange,"Rue de l'Ouest, Le Cannet, 06110, France","Le Cannet, France",4,Modern Cuisine,7.014556,43.5716556,2 Stars,0,France,Le Cannet,0,0,12,2,0,1,4
L'Auberge de Montmin,"1983 route de Talloires, Col de la Forclaz, Talloires-Montmin, 74210, France","Talloires-Montmin, France",4,Creative,6.2486842,45.8072811,2 Stars,1,France,Talloires-Montmin,0,0,4,2,0,1,4
Maison Rostang,"20 rue Rennequin, Paris, 75017, France","Paris, France",4,Classic Cuisine,2.2985363,48.881407,2 Stars,0,France,Paris,1,1,349,2,0,1,4
Lalique,"1707 route des Gourgues, Bommes, 33210, France","Bommes, France",4,Modern Cuisine,-0.3374123,44.5493811,2 Stars,0,France,Bommes,0,0,2,2,0,1,4
Christophe Hay - Fleur de Loire,"26 quai Villebois-Mareuil, Blois, 41000, France","Blois, France",4,"Modern Cuisine, Creative",1.3378048,47.5823386,2 Stars,1,France,Blois,0,0,5,2,0,1,4
La Grand'Vigne - Les Sources de Caudalie,"Chemin de Smith-Haut-Lafitte, Martillac, 33650, France","Martillac, France",4,Modern Cuisine,-0.5571095,44.7310086,2 Stars,0,France,Martillac,0,0,1,2,0,1,4
L'Observatoire du Gabriel,"10 place de la Bourse, Bordeaux, 33000, France","Bordeaux, France",4,"Modern Cuisine, Creative",-0.5707147,44.8413505,2 Stars,0,France,Bordeaux,0,0,46,2,0,1,4
Maison Ronan Kervarrec,"1 impasse du Vieux-Bourg, Saint-Grégoire, 35760, France","Saint-Grégoire, France",4,Modern Cuisine,-1.6805561,48.1533015,2 Stars,0,France,Saint-Grégoire,0,0,5,2,0,1,4
La Voile - La Reserve Ramatuelle,"Chemin de la Quessine, Ramatuelle, 83350, France","Ramatuelle, France",4,Modern Cuisine,6.6481676,43.1923476,2 Stars,0,France,Ramatuelle,0,0,4,2,0,1,4
La Grenouillere,"19 rue de la Grenouillère, La Madelaine-sous-Montreuil, 62170, France","La Madelaine-sous-Montreuil, France",4,Creative,1.7544175,50.4710226,2 Stars,1,France,La Madelaine-sous-Montreuil,0,0,3,2,0,1,4
Le Pressoir d'Argent - Gordon Ramsay,"InterContinental Bordeaux - Le Grand Hôtel, 2-5 place de la Comédie, Bordeaux, 33000, France","Bordeaux, France",4,Modern Cuisine,-0.5747973,44.8424463,2 Stars,0,France,Bordeaux,0,0,46,2,0,1,4
Le Parc Les Crayeres,"64 boulevard Henry-Vasnier, Reims, 51100, France","Reims, France",4,Modern Cuisine,4.0517461,49.2410909,2 Stars,0,France,Reims,0,0,11,2,0,1,4
Georges Blanc,"Place du Marché, Vonnas, 01540, France","Vonnas, France",4,Classic Cuisine,4.9894987,46.2201083,2 Stars,0,France,Vonnas,0,1,2,2,0,1,4
Sylvestre Wahid - Les Grandes Alpes,"28 rue de l'Église, Courchevel 1850, Courchevel, 73120, France","Courchevel, France",4,Creative,6.6349308,45.4144213,2 Stars,0,France,Courchevel,0,0,14,2,0,1,4
Flaveur,"25 rue Gubernatis, Nice, 06000, France","Nice, France",4,Creative,7.2718302,43.7014072,2 Stars,0,France,Nice,0,0,38,2,0,1,4
Le Clarence,"31 avenue Franklin-D.-Roosevelt, Paris, 75008, France","Paris, France",4,Creative,2.3098732,48.8673498,2 Stars,0,France,Paris,1,0,418,2,0,1,4
La Table Lionel Giraud,"Rond-point de la Liberté, 68 avenue du Général-Leclerc, Narbonne, 11100, France","Narbonne, France",4,"Creative, Modern Cuisine",2.9918502,43.1743172,2 Stars,0,France,Narbonne,0,0,1,2,0,1,4
La Cote d'Or,"Le Relais Bernard Loiseau, 2 avenue Bernard-Loiseau, Saulieu, 21210, France","Saulieu, France",4,Modern Cuisine,4.2321852,47.2797873,2 Stars,0,France,Saulieu,0,0,1,2,0,1,4
William Frachot,"Hostellerie du Chapeau Rouge, 5 rue Michelet, Dijon, 21000, France","Dijon, France",4,"Modern Cuisine, Creative",5.0356396,47.3212722,2 Stars,0,France,Dijon,0,0,19,2,0,1,4
La Fourchette des Ducs,"6 rue de la Gare, Obernai, 67210, France","Obernai, France",4,Modern Cuisine,7.488355,48.4620365,2 Stars,0,France,Obernai,0,0,5,2,0,1,4
Baumaniere 1850,"Le Strato, Route de Bellecôte, Courchevel 1850, Courchevel, 73120, France","Courchevel, France",4,Creative,6.6380783,45.4102934,2 Stars,0,France,Courchevel,0,0,14,2,0,1,4
Casadelmar,"Route de Palombaggia, Porto-Vecchio, 20137, France","Porto-Vecchio, France",4,Modern Cuisine,9.3099771,41.5948102,2 Stars,0,France,Porto-Vecchio,0,0,4,2,0,1,4
Le Chabichou by Stephane Buron,"90 rue des Chenus, Courchevel 1850, Courchevel, 73120, France","Courchevel, France",4,Modern Cuisine,6.629984,45.41616,2 Stars,0,France,Courchevel,0,0,14,2,0,1,4
La Chevre d'Or,"Rue du Barri, Èze, 06360, France","Èze, France",4,Creative,7.3620885,43.727378,2 Stars,0,France,Èze,0,0,10,2,0,1,4
La Cime,"3-2-15 Kawaramachi, Chuo-ku, Osaka, 541-0048, Japan","Osaka, Japan",4,"French, Contemporary",135.503519,34.685818,2 Stars,0,Japan,Osaka,0,0,244,2,0,1,4
Miyamoto,"2-10-28 Higashitemma, Kita-ku, Osaka, 530-0044, Japan","Osaka, Japan",4,Japanese,135.513189,34.698372,2 Stars,0,Japan,Osaka,0,1,246,2,0,1,4
Fujiya 1935,"2-4-14 Yariyamachi, Chuo-ku, Osaka, 540-0027, Japan","Osaka, Japan",4,Innovative,135.511871,34.683037,2 Stars,0,Japan,Osaka,0,0,243,2,0,1,4
Koryu,"3-3-3 Uchiawajimachi, Chuo-ku, Osaka, 540-0038, Japan","Osaka, Japan",4,Japanese,135.510132,34.686929,2 Stars,0,Japan,Osaka,0,1,244,2,0,1,4
Yugen,"14-14 Ishigatsujicho, Tennoji-ku, Osaka, 543-0031, Japan","Osaka, Japan",4,Japanese,135.521663,34.664773,2 Stars,0,Japan,Osaka,0,1,226,2,0,1,4
Shunsaiten Tsuchiya,"41-4 Toyotsucho, Suita, Osaka, 564-0051, Japan","Osaka, Japan",3,"Tempura, Japanese",135.490966,34.760534,2 Stars,0,Japan,Osaka,0,1,2,2,0,1,4
Sushi Harasho,"3-30 Uenomiyacho, Tennoji-ku, Osaka, 543-0037, Japan","Osaka, Japan",3,Sushi,135.51986,34.662195,2 Stars,0,Japan,Osaka,0,1,219,2,0,1,4
Yusokuryori Mankamero,"387 Ebisucho, Kamigyo-ku, Kyoto, 602-8118, Japan","Kyoto, Japan",4,Japanese,135.750507,35.022114,2 Stars,0,Japan,Kyoto,0,1,243,2,0,1,4
Sanso Kyoyamato,"359 Masuyacho, Higashiyama-ku, Kyoto, 605-0826, Japan","Kyoto, Japan",4,Japanese,135.78139,34.999252,2 Stars,0,Japan,Kyoto,0,1,219,2,0,1,4
Ogata,"726 Shinkamanzacho, Shimogyo-ku, Kyoto, 600-8471, Japan","Kyoto, Japan",4,Japanese,135.755967,35.003191,2 Stars,0,Japan,Kyoto,0,1,237,2,0,1,4
Kyokaiseki Kichisen,"5 Shimogamo Morimotocho, Sakyo-ku, Kyoto, 606-0805, Japan","Kyoto, Japan",4,Japanese,135.771236,35.035717,2 Stars,0,Japan,Kyoto,0,1,236,2,0,1,4
Gion Nishikawa,"473 Shimokawaracho, Higashiyama-ku, Kyoto, 605-0825, Japan","Kyoto, Japan",4,Japanese,135.778857,34.999797,2 Stars,0,Japan,Kyoto,0,1,223,2,0,1,4
Otagi,"18 Takagamine Tsuchitenjocho, Kita-ku, Kyoto, 603-8465, Japan","Kyoto, Japan",4,Japanese,135.73416,35.050744,2 Stars,0,Japan,Kyoto,0,1,85,2,0,1,4
Numata,"7F, 1-10-2 Sonezakishinchi, Kita-ku, Osaka, 530-0002, Japan","Osaka, Japan",4,Tempura,135.497901,34.697954,2 Stars,0,Japan,Osaka,0,1,241,2,0,1,4
KAHALA,"2F, 1-9-2 Sonezakishinchi, Kita-ku, Osaka, 530-0002, Japan","Osaka, Japan",4,Innovative,135.499685,34.697522,2 Stars,0,Japan,Osaka,0,0,242,2,0,1,4
Oimatsu Hisano,"4-8-3 Nishitemma, Kita-ku, Osaka, 530-0047, Japan","Osaka, Japan",4,Japanese,135.504137,34.697005,2 Stars,0,Japan,Osaka,0,1,244,2,0,1,4
Miyamaso,"375 Hanase Harachicho, Sakyo-ku, Kyoto, 601-1102, Japan","Kyoto, Japan",3,Japanese,135.793011,35.233154,2 Stars,1,Japan,Kyoto,0,1,0,2,0,1,4
Sumibi Kappo Ifuki,"570-8 Giommachi Minamigawa, Higashiyama-ku, Kyoto, 605-0074, Japan","Kyoto, Japan",4,Japanese,135.775255,35.002345,2 Stars,0,Japan,Kyoto,0,1,232,2,0,1,4
Kenninji Gion Maruyama,"566-15 Komatsucho, Higashiyama-ku, Kyoto, 605-0811, Japan","Kyoto, Japan",4,Japanese,135.774574,34.998809,2 Stars,0,Japan,Kyoto,0,1,222,2,0,1,4
Kodaiji Wakuden,"512 Washiocho, Higashiyama-ku, Kyoto, 605-0072, Japan","Kyoto, Japan",4,Japanese,135.779734,35.001635,2 Stars,1,Japan,Kyoto,0,1,226,2,0,1,4
Kikunoi Roan,"118 Saitocho, Shimogyo-ku, Kyoto, 600-8012, Japan","Kyoto, Japan",3,Japanese,135.770647,35.003449,2 Stars,0,Japan,Kyoto,0,1,236,2,0,1,4
Tenjimbashi Aoki,"7-12-14 Tenjimbashi, Kita-ku, Osaka, 531-0041, Japan","Osaka, Japan",4,Japanese,135.511084,34.71394,2 Stars,0,Japan,Osaka,0,1,229,2,0,1,4
Sojiki Nakahigashi,"32-3 Jodoji Ishibashicho, Sakyo-ku, Kyoto, 606-8406, Japan","Kyoto, Japan",3,Japanese,135.792708,35.027601,2 Stars,1,Japan,Kyoto,0,1,229,2,0,1,4
Kodaiji Jugyuan,"353 Masuyacho, Higashiyama-ku, Kyoto, 605-0826, Japan","Kyoto, Japan",4,Japanese,135.781565,34.998694,2 Stars,0,Japan,Kyoto,0,1,219,2,0,1,4
Gion Matayoshi,"570-123 Giommachi Minamigawa, Higashiyama-ku, Kyoto, 605-0074, Japan","Kyoto, Japan",4,Japanese,135.774545,35.003349,2 Stars,0,Japan,Kyoto,0,1,233,2,0,1,4
Gion Maruyama,"570-171 Giommachi Minamigawa, Higashiyama-ku, Kyoto, 605-0074, Japan","Kyoto, Japan",4,Japanese,135.776068,35.002587,2 Stars,0,Japan,Kyoto,0,1,232,2,0,1,4
Ryo-sho,"570-166 Giommachi Minamigawa, Higashiyama-ku, Kyoto, 605-0074, Japan","Kyoto, Japan",4,Japanese,135.775871,35.00237,2 Stars,0,Japan,Kyoto,0,1,232,2,0,1,4
Run,"2F, The St. Regis Hotel, 1 Harbour Drive, Wan Chai, Hong Kong, Hong Kong SAR China","Hong Kong, Hong Kong SAR China",3,Cantonese,114.175716,22.2801399,2 Stars,0,Hong Kong SAR China,Hong Kong,1,1,187,2,0,1,4
The Eight,"2F, Grand Lisboa Hotel, Avenida de Lisboa, Macau, Macau",Macau,3,Cantonese,113.54341,22.190475,2 Stars,0,Macau,Macau,0,1,33,2,0,1,4
Octavium,"8F, One Chinachem Central, 22 Des Voeux Road Central, Central, Hong Kong, Hong Kong SAR China","Hong Kong, Hong Kong SAR China",4,Italian,114.1571177,22.2825493,2 Stars,0,Hong Kong SAR China,Hong Kong,1,0,186,2,0,1,4
L'Envol,"3F, The St. Regis Hotel, 1 Harbour Drive, Wan Chai, Hong Kong, Hong Kong SAR China","Hong Kong, Hong Kong SAR China",4,French Contemporary,114.1761315,22.2799005,2 Stars,0,Hong Kong SAR China,Hong Kong,1,0,187,2,0,1,4
Wing Lei,"GF, Wynn Hotel, Rua Cidade de Sintra, NAPE, Macau, Macau",Macau,3,Cantonese,113.54578,22.188028,2 Stars,0,Macau,Macau,0,1,41,2,0,1,4
Lai Ching Heen,"GF, Regent, 18 Salisbury Road, Tsim Sha Tsui, Hong Kong, Hong Kong SAR China","Hong Kong, Hong Kong SAR China",3,Cantonese,114.17395,22.293337,2 Stars,0,Hong Kong SAR China,Hong Kong,1,1,195,2,0,1,4
Arbor,"25F, H Queen's, 80 Queen's Road Central, Central, Hong Kong, Hong Kong SAR China","Hong Kong, Hong Kong SAR China",4,Innovative,114.1552579,22.2829955,2 Stars,0,Hong Kong SAR China,Hong Kong,1,0,186,2,0,1,4
Noi by Paulo Airaudo,"5F, Four Seasons Hotel, 8 Finance Street, Central, Hong Kong, Hong Kong SAR China","Hong Kong, Hong Kong SAR China",4,Italian Contemporary,114.1566761,22.286618,2 Stars,0,Hong Kong SAR China,Hong Kong,1,0,191,2,0,1,4
Tin Lung Heen,"102F, The Ritz-Carlton, International Commerce Centre, 1 Austin Road West, Tsim Sha Tsui, Hong Kong, Hong Kong SAR China","Hong Kong, Hong Kong SAR China",3,Cantonese,114.1598747,22.3032802,2 Stars,0,Hong Kong SAR China,Hong Kong,1,1,195,2,0,1,4
Feng Wei Ju,"5F, StarWorld Hotel, Avenida da Amizade, Macau, Macau",Macau,2,"Hunanese, Sichuan",113.5479285,22.189952,2 Stars,0,Macau,Macau,0,0,41,2,0,1,4
Alain Ducasse at Morpheus,"3F, Morpheus, City of Dreams, Estrada do Istmo, Cotai, Macau",Macau,4,French Contemporary,113.5669767,22.1501736,2 Stars,0,Macau,Macau,0,0,40,2,0,1,4
Tate,"210 Hollywood Road, Sheung Wan, Hong Kong, Hong Kong SAR China","Hong Kong, Hong Kong SAR China",4,Innovative,114.1477192,22.2855757,2 Stars,0,Hong Kong SAR China,Hong Kong,1,0,182,2,0,1,4
Ying Jee Club,"Shop G05, 107-108, GF & 1F, Nexxus Building, 41 Connaught Road Central, Central, Hong Kong, Hong Kong SAR China","Hong Kong, Hong Kong SAR China",3,Cantonese,114.156654,22.284338,2 Stars,0,Hong Kong SAR China,Hong Kong,1,1,187,2,0,1,4
Lung King Heen,"4F, Four Seasons Hotel, 8 Finance Street, Central, Hong Kong, Hong Kong SAR China","Hong Kong, Hong Kong SAR China",3,Cantonese,114.1580538,22.2860122,2 Stars,0,Hong Kong SAR China,Hong Kong,1,1,191,2,0,1,4
Bo Innovation,"1F, H Code, 45 Pottinger Street, Central, Hong Kong, Hong Kong SAR China","Hong Kong, Hong Kong SAR China",3,Innovative,114.1541593,22.2821169,2 Stars,0,Hong Kong SAR China,Hong Kong,1,0,184,2,0,1,4
The Huaiyang Garden,"Shop 2206a & 2208, 2F, The Londoner, Estrada do Istmo, Cotai, Macau",Macau,3,Huaiyang,113.5652198,22.1458883,2 Stars,0,Macau,Macau,0,0,36,2,0,1,4
Chef Tam's Seasons,"GF, North Esplanade, Wynn Palace, Avenida da Nave Desportiva, Cotai, Macau",Macau,3,Cantonese,113.5723245,22.1473845,2 Stars,0,Macau,Macau,0,1,36,2,0,1,4
La Yeon,"23F Shilla Hotel, 249 Dongho-ro, Jung-gu, Seoul, 04605, South Korea","Seoul, South Korea",4,"Korean, Contemporary",127.00517,37.555813,2 Stars,0,South Korea,Seoul,0,1,121,2,0,1,4
Evett,"10-5 Dosan-daero 45-gil, Gangnam-gu, Seoul, 06021, South Korea","Seoul, South Korea",4,"Innovative, Korean",127.0362,37.52334,2 Stars,0,South Korea,Seoul,0,1,115,2,0,1,4
Kwonsooksoo,"4F, 37 Apgujeong-ro 80-gil, Gangnam-gu, Seoul, 06016, South Korea","Seoul, South Korea",4,Korean,127.04355,37.52437,2 Stars,0,South Korea,Seoul,0,1,108,2,0,1,4
Soigne,"#201, 2F, Sinsa square, 652 Gangnam-daero, Gangnam-gu, Seoul, 06027, South Korea","Seoul, South Korea",4,Contemporary,127.01903,37.51933,2 Stars,0,South Korea,Seoul,0,0,123,2,0,1,4
Jungsik,"11 Seolleung-ro 158-gil, Gangnam-gu, Seoul, 06014, South Korea","Seoul, South Korea",4,Contemporary,127.041069,37.525584,2 Stars,0,South Korea,Seoul,0,0,113,2,0,1,4
alla prima,"13 Hakdong-ro 17-gil, Gangnam-gu, Seoul, 06045, South Korea","Seoul, South Korea",4,Innovative,127.02602,37.51346,2 Stars,0,South Korea,Seoul,0,0,111,2,0,1,4
Mitou,"24 Dosan-daero 70-gil, Gangnam-gu, Seoul, 06064, South Korea","Seoul, South Korea",4,Japanese,127.04502,37.52206,2 Stars,0,South Korea,Seoul,0,0,106,2,0,1,4
Restaurant Allen,"2F Center field EAST E205, 231 Teheran-ro, Gangnam-gu, Seoul, 06142, South Korea","Seoul, South Korea",4,Contemporary,127.0418,37.5036,2 Stars,0,South Korea,Seoul,0,0,99,2,0,1,4
Il Gallo d'Oro,"Estrada Monumental 147, Funchal, 9004-532, Portugal","Funchal, Portugal",4,Modern Cuisine,-16.9266478,32.6382988,2 Stars,1,Portugal,Funchal,0,0,10,2,0,1,4
Casa de Cha da Boa Nova,"Avenida da Liberdade, 1681, Leça da Palmeira, 4450-718, Portugal","Leça da Palmeira, Portugal",4,Modern Cuisine,-8.7147233,41.2027411,2 Stars,0,Portugal,Leça da Palmeira,0,0,3,2,0,1,4
Antiqvvm,"Rua de Entre Quintas 220, Porto, 4050-240, Portugal","Porto, Portugal",4,Creative,-8.62831,41.14776,2 Stars,0,Portugal,Porto,0,0,24,2,0,1,4
The Yeatman Gastronomic R.,"Rua do Choupelo (Santa Marinha), Vila Nova de Gaia, 4400-088, Portugal","Vila Nova de Gaia, Portugal",4,Creative,-8.6133869,41.1336845,2 Stars,0,Portugal,Vila Nova de Gaia,0,0,20,2,0,1,4
Vila Joya,"Estrada da Galé, Albufeira, 8200-416, Portugal","Albufeira, Portugal",4,Modern Cuisine,-8.31367,37.08059,2 Stars,0,Portugal,Albufeira,0,0,0,2,0,1,4
Ocean,"Rua Anneliese Pohl - Alporchinhos, Porches, 8400-450, Portugal","Porches, Portugal",4,Creative,-8.3792041,37.1008268,2 Stars,0,Portugal,Porches,0,0,3,2,0,1,4
Henrique Sa Pessoa,"Travessa da Légua De Póvoa 11, Corpo 3, Bloco B, Loja L, Lisbon, 1250-138, Portugal","Lisbon, Portugal",4,Creative,-9.1559051,38.7235618,2 Stars,0,Portugal,Lisbon,0,0,37,2,0,1,4
Belcanto,"Rua Serpa Pinto 10A, Lisbon, 1200-026, Portugal","Lisbon, Portugal",4,"Creative, Portuguese",-9.1415741,38.7104102,2 Stars,0,Portugal,Lisbon,0,1,36,2,0,1,4
Landhaus Bacher,"Südtiroler Platz 2, Mautern an der Donau, 3512, Austria","Mautern an der Donau, Austria",4,Classic Cuisine,15.5794174,48.393172,2 Stars,0,Austria,Mautern an der Donau,0,0,0,2,0,1,4
Dollerer,"Markt 56, Golling an der Salzach, 5440, Austria","Golling an der Salzach, Austria",4,"Innovative, Alpine",13.1677057,47.5972979,2 Stars,0,Austria,Golling an der Salzach,0,0,1,2,0,1,4
Ois,"Unternberg 6, Neufelden, 4120, Austria","Neufelden, Austria",4,"Modern Cuisine, Austrian",14.0023486,48.4814599,2 Stars,0,Austria,Neufelden,0,1,0,2,0,1,4
Taubenkobel,"Hauptstraße 31, Schützen am Gebirge, 7081, Austria","Schützen am Gebirge, Austria",4,"French Contemporary, Regional Cuisine",16.6264336,47.8515574,2 Stars,0,Austria,Schützen am Gebirge,0,0,1,2,0,1,4
Obauer,"Markt 46, Werfen, 5450, Austria","Werfen, Austria",4,"Classic Cuisine, Seasonal Cuisine",13.1902449,47.4755112,2 Stars,0,Austria,Werfen,0,0,0,2,0,1,4
SENNS.Restaurant,"Söllheimerstrasse 16, Salzburg, 5020, Austria","Salzburg, Austria",4,"Creative, International",13.063525,47.8361594,2 Stars,0,Austria,Salzburg,0,0,11,2,0,1,4
Silvio Nickol Gourmet Restaurant,"Coburgbastei 4, Vienna, 1010, Austria","Vienna, Austria",4,Modern Cuisine,16.3770073,48.2058003,2 Stars,0,Austria,Vienna,0,0,63,2,0,1,4
Stuva,"Dorfstr. 73, Ischgl, 6561, Austria","Ischgl, Austria",4,"Creative French, Modern Cuisine",10.28901,47.00948,2 Stars,0,Austria,Ischgl,0,0,3,2,0,1,4
Restaurant 141 by Joachim Jaud,"Obermieming 141, Mieming, 6414, Austria","Mieming, Austria",4,"Creative, Seasonal Cuisine",10.9869243,47.3076251,2 Stars,0,Austria,Mieming,0,0,1,2,0,1,4
Doubek,"Kochgasse 13, Vienna, 1080, Austria","Vienna, Austria",4,"Creative, Modern Cuisine",16.3494292,48.213172,2 Stars,0,Austria,Vienna,0,0,65,2,0,1,4
Ikarus,"Wilhelm-Spazier-Straße 7a, Salzburg, 5020, Austria","Salzburg, Austria",4,"Creative, Modern Cuisine",13.0078642,47.7935688,2 Stars,0,Austria,Salzburg,0,0,13,2,0,1,4
Mraz & Sohn,"Wallensteinstraße 59, Vienna, 1200, Austria","Vienna, Austria",4,"Creative, Seasonal Cuisine",16.376268,48.2313078,2 Stars,0,Austria,Vienna,0,0,61,2,0,1,4
Griggeler Stuba,"Oberlech 568, Lech am Arlberg, 6764, Austria","Lech am Arlberg, Austria",4,"Modern Cuisine, International",10.1384191,47.2172212,2 Stars,0,Austria,Lech am Arlberg,0,0,14,2,0,1,4
Krauterreich by Vitus Winkler,"Kirchweg 2, Sankt Veit im Pongau, 5621, Austria","Sankt Veit im Pongau, Austria",4,"Creative, Seasonal Cuisine",13.15309,47.32784,2 Stars,1,Austria,Sankt Veit im Pongau,0,0,1,2,0,1,4
Gourmetrestaurant Tannenhof,"Nassereinerstraße 98, Sankt Anton am Arlberg, 6580, Austria","Sankt Anton am Arlberg, Austria",4,"Alpine, Modern Cuisine",10.2770669,47.1397632,2 Stars,0,Austria,Sankt Anton am Arlberg,0,0,5,2,0,1,4
Schwarzer Adler,"Eugenstrasse 3, Hall in Tirol, 6060, Austria","Hall in Tirol, Austria",4,"European Contemporary, Seasonal Cuisine",11.5082487,47.2811239,2 Stars,0,Austria,Hall in Tirol,0,0,1,2,0,1,4
Rote Wand Chef's Table,"Zug 5, Lech am Arlberg, 6764, Austria","Lech am Arlberg, Austria",4,"Modern Cuisine, Creative",10.1092578,47.2005705,2 Stars,0,Austria,Lech am Arlberg,0,0,14,2,0,1,4
Konstantin Filippou,"Dominikanerbastei 17, Vienna, 1010, Austria","Vienna, Austria",4,"Modern Cuisine, Creative",16.3798024,48.2106747,2 Stars,0,Austria,Vienna,0,0,61,2,0,1,4
Delta,"364 Syggrou Avenue, Athens, 17674, Greece","Athens, Greece",4,"Creative, Greek",23.6920295,37.9388218,2 Stars,1,Greece,Athens,0,1,9,2,0,1,4
Matthias,"Kollwitzstraße 87, Berlin, 10435, Germany","Berlin, Germany",3,"Modern Cuisine, French",13.4200023,52.538311,1 Star,0,Germany,Berlin,0,0,36,1,0,1,3
Loumi,"Ritterstraße 2, Berlin, 10969, Germany","Berlin, Germany",4,"International, Asian",13.4133674,52.500686,1 Star,0,Germany,Berlin,0,0,53,1,0,1,3
June,"Seestraße 10, Übersee, 83236, Germany","Übersee, Germany",3,"Regional Cuisine, Modern Cuisine",12.4743211,47.8405088,1 Star,1,Germany,Übersee,0,0,1,1,0,1,3
MiZAR,"Katzengasse 7, Würzburg, 97082, Germany","Würzburg, Germany",4,"Creative, Seasonal Cuisine",9.9232488,49.7941767,1 Star,0,Germany,Würzburg,0,0,2,1,0,1,3
Showroom,"Lilienstraße 6, Munich, 81169, Germany","Munich, Germany",4,Creative,11.587331,48.130492,1 Star,0,Germany,Munich,0,0,57,1,0,1,3
FAVORITE restaurant,"Karl-Weiser-Straße 1, Mainz, 55131, Germany","Mainz, Germany",4,"Creative, Mediterranean Cuisine",8.289494,49.9899559,1 Star,0,Germany,Mainz,0,0,3,1,0,1,3
Wullenwever,"Beckergrube 71, Lübeck, 23552, Germany","Lübeck, Germany",4,"Classic Cuisine, Mediterranean Cuisine",10.682255,53.8696544,1 Star,0,Germany,Lübeck,0,0,3,1,0,1,3
VILLINO,"Mittenbuch 6, Lindau, 88131, Germany","Lindau, Germany",4,"Modern Cuisine, Asian Influences",9.673153,47.567314,1 Star,0,Germany,Lindau,0,0,4,1,0,1,3
Stadtpfeiffer,"Augustusplatz 8, Leipzig, 04109, Germany","Leipzig, Germany",4,"Creative, Modern French",12.380167,51.3381371,1 Star,0,Germany,Leipzig,0,0,7,1,0,1,3
Das Marktrestaurant,"Dekan-Karl-Platz 21, Mittenwald, 82481, Germany","Mittenwald, Germany",3,"Country cooking, Seasonal Cuisine",11.2598384,47.4390442,1 Star,0,Germany,Mittenwald,0,0,0,1,0,1,3
Laudensacks Gourmet Restaurant,"Kurhausstraße 28, Bad Kissingen, 97688, Germany","Bad Kissingen, Germany",4,"Classic Cuisine, Seasonal Cuisine",10.0777456,50.1908345,1 Star,0,Germany,Bad Kissingen,0,0,0,1,0,1,3
KARRisma,"Alter Schulplatz 1, Lindau, 88131, Germany","Lindau, Germany",4,"Creative, Farm to table",9.6854321,47.5474074,1 Star,0,Germany,Lindau,0,0,3,1,0,1,3
La Societe,"Kyffhäuser Straße 53, Cologne, 50674, Germany","Cologne, Germany",4,"Modern Cuisine, International",6.9372169,50.9285296,1 Star,0,Germany,Cologne,0,0,26,1,0,1,3
Christian's Restaurant - Gasthof Grainer,"Dorfstraße 1, Kirchdorf, 83527, Germany","Kirchdorf, Germany",4,Classic Cuisine,12.1982993,48.1766285,1 Star,0,Germany,Kirchdorf,0,0,0,1,0,1,3
Ursprung,"Struthstraße 17, Königsbronn, 89551, Germany","Königsbronn, Germany",4,"Creative, Country cooking",10.0651509,48.7296752,1 Star,1,Germany,Königsbronn,0,0,1,1,0,1,3
Speiseberg,"Kröllwitzer Straße 45, Halle (saale), 06120, Germany","Halle (saale), Germany",4,"Modern Cuisine, Creative",11.9514969,51.5049411,1 Star,0,Germany,Halle (saale),0,0,0,1,0,1,3
OX,"Mauerstraße 6, Darmstadt, 64289, Germany","Darmstadt, Germany",4,Modern Cuisine,8.66055,49.8760593,1 Star,0,Germany,Darmstadt,0,0,0,1,0,1,3
Marcel von Winckelmann,"Hans-Hösl-Str. 3, Passau, 94036, Germany","Passau, Germany",4,"International, Fusion",13.3986555,48.5802555,1 Star,0,Germany,Passau,0,0,1,1,0,1,3
Sommerfeld,"Weserstraße 4, Frankfurt on the Main, 60329, Germany","Frankfurt on the Main, Germany",4,"International, Creative",8.670725,50.1076641,1 Star,0,Germany,Frankfurt on the Main,0,0,23,1,0,1,3
irori,"Hauptstraße 15a, Knittelsheim, 76879, Germany","Knittelsheim, Germany",4,"Creative, Japanese Contemporary",8.2499514,49.1912675,1 Star,0,Germany,Knittelsheim,0,0,0,1,0,1,3
Restaurant Uberfahrt,"Überfahrtstraße 10, Rottach-Egern, 83700, Germany","Rottach-Egern, Germany",4,"Classic Cuisine, Farm to table",11.7582292,47.6966846,1 Star,0,Germany,Rottach-Egern,0,0,7,1,0,1,3
Gabelspiel,"Zehentbauernstraße 20, Munich, 81539, Germany","Munich, Germany",4,"Modern Cuisine, Farm to table",11.5777467,48.1136353,1 Star,0,Germany,Munich,0,0,48,1,0,1,3
MARBURGER Esszimmer,"Anneliese Pohl Allee 1, Marburg, 35037, Germany","Marburg, Germany",4,"Modern French, Contemporary",8.7716237,50.8182113,1 Star,1,Germany,Marburg,0,0,0,1,0,1,3
Anthony's Kitchen,"Moerser Straße 81, Meerbusch, 40667, Germany","Meerbusch, Germany",4,"Innovative, International",6.6827217,51.257149,1 Star,0,Germany,Meerbusch,0,0,1,1,0,1,3
Dobler's,"Seckenheimer Straße 20, Mannheim, 68159, Germany","Mannheim, Germany",4,Classic Cuisine,8.4761985,49.4810346,1 Star,0,Germany,Mannheim,0,0,3,1,0,1,3
Casala - das Restaurant,"Uferpromenade 11, Meersburg, 88709, Germany","Meersburg, Germany",4,"Modern Cuisine, Farm to table",9.2769831,47.6911154,1 Star,0,Germany,Meersburg,0,0,0,1,0,1,3
Keidenzeller Hof,"Fürther Straße 11, Langenzenn, 90579, Germany","Langenzenn, Germany",4,"Modern Cuisine, Creative",10.7768228,49.4672666,1 Star,0,Germany,Langenzenn,0,0,0,1,0,1,3
Meisenheimer Hof,"Obergasse 33, Meisenheim, 55590, Germany","Meisenheim, Germany",3,"Farm to table, Modern French",7.6704922,49.7073941,1 Star,0,Germany,Meisenheim,0,0,0,1,0,1,3
Adler,"Reichenbacher Hauptstraße 18, Lahr, 77933, Germany","Lahr, Germany",3,Modern French,7.9249354,48.3299999,1 Star,0,Germany,Lahr,0,0,2,1,0,1,3
Malathounis,"Gartenstraße 5, Kernen im Remstal, 71394, Germany","Kernen im Remstal, Germany",3,"Mediterranean Cuisine, Greek",9.3423876,48.793824,1 Star,0,Germany,Kernen im Remstal,0,0,6,1,0,1,3
Troyka,"Rurstraße 19, Erkelenz, 41812, Germany","Erkelenz, Germany",4,"Modern Cuisine, Russian",6.3320766,51.0588999,1 Star,0,Germany,Erkelenz,0,0,0,1,0,1,3
GLORIE,"Brandshofer Deich 68, Hamburg, 20539, Germany","Hamburg, Germany",4,"Classic Cuisine, Contemporary",10.0285679,53.5374345,1 Star,1,Germany,Hamburg,0,0,26,1,0,1,3
La Boucherie,"Hauptstraße 18, Kreuzwertheim, 97892, Germany","Kreuzwertheim, Germany",4,Contemporary,9.5160361,49.7649722,1 Star,0,Germany,Kreuzwertheim,0,0,1,1,0,1,3
Hawara,"Dreikönigstraße 8, Freiburg im Breisgau, 79102, Germany","Freiburg im Breisgau, Germany",4,"Modern Cuisine, Regional Cuisine",7.8569165,47.9893883,1 Star,1,Germany,Freiburg im Breisgau,0,0,9,1,0,1,3
Sparkling Bistro,"Amalienstraße 89/ Türkenstraße 86, Munich, 80799, Germany","Munich, Germany",4,"Modern Cuisine, Farm to table",11.5779835,48.1519723,1 Star,0,Germany,Munich,0,0,62,1,0,1,3
Ich weiß ein Haus am See,"Paradiesweg 3, Krakow am See, 18292, Germany","Krakow am See, Germany",4,Classic French,12.2984015,53.6685683,1 Star,0,Germany,Krakow am See,0,0,0,1,0,1,3
Storchen,"Felix und Nabor Straße 2, Bad Krozingen, 79189, Germany","Bad Krozingen, Germany",3,"Classic Cuisine, Farm to table",7.69288,47.89284,1 Star,0,Germany,Bad Krozingen,0,0,4,1,0,1,3
360°,"Bahnhofsplatz 1a, Limburg an der Lahn, 65549, Germany","Limburg an der Lahn, Germany",4,"Modern Cuisine, International",8.0614395,50.3844391,1 Star,0,Germany,Limburg an der Lahn,0,0,1,1,0,1,3
Steins Traube,"Poststraße 4, Mainz, 55126, Germany","Mainz, Germany",3,"Farm to table, Classic Cuisine",8.1746485,49.9838324,1 Star,0,Germany,Mainz,0,0,0,1,0,1,3
Borst,"Luitpoldstraße 4, Maßweiler, 66506, Germany","Maßweiler, Germany",3,"Classic French, Farm to table",7.5277892,49.2710771,1 Star,0,Germany,Maßweiler,0,0,0,1,0,1,3
HOCHZWEI,"Burghof 11, Langenau, 89129, Germany","Langenau, Germany",4,"Classic Cuisine, Farm to table",10.1241636,48.500147,1 Star,0,Germany,Langenau,0,0,1,1,0,1,3
Leos by Stephan Brandl,"Liebenstein 25, Bad Kötzing, 93444, Germany","Bad Kötzing, Germany",4,"Classic Cuisine, Contemporary",12.829522,49.215674,1 Star,0,Germany,Bad Kötzing,0,0,0,1,0,1,3
taku,"Trankgasse 5, Cologne, 50667, Germany","Cologne, Germany",4,"Asian, Fusion",6.9563194,50.9417798,1 Star,0,Germany,Cologne,0,0,26,1,0,1,3
Schiller's Manufaktur,"Mayenerstraße 126, Koblenz, 56070, Germany","Koblenz, Germany",3,"Classic Cuisine, Mediterranean Cuisine",7.5814339,50.3693993,1 Star,0,Germany,Koblenz,0,0,3,1,0,1,3
Ahlmanns,"Niemannsweg 102, Kiel, 24105, Germany","Kiel, Germany",4,"Creative, Seasonal Cuisine",10.1513168,54.3387107,1 Star,0,Germany,Kiel,0,0,3,1,0,1,3
Le Moissonnier Bistro,"Krefelder Straße 25, Cologne, 50670, Germany","Cologne, Germany",3,"French, Seafood",6.9524362,50.9507694,1 Star,0,Germany,Cologne,0,0,26,1,0,1,3
Raro im Muhlenhof,"Talstraße 188, Schriesheim, 69198, Germany","Schriesheim, Germany",4,"Regional Cuisine, Seasonal Cuisine",8.7080193,49.4762099,1 Star,1,Germany,Schriesheim,0,0,0,1,0,1,3
Cheval Blanc,"Am Kirchberg 1, Illschwang, 92278, Germany","Illschwang, Germany",4,"Classic Cuisine, Modern French",11.6842236,49.4480661,1 Star,0,Germany,Illschwang,0,0,1,1,0,1,3
Alte Liebe,"Alpenstraße 21, Augsburg, 86159, Germany","Augsburg, Germany",4,"Modern Cuisine, Seasonal Cuisine",10.8969716,48.3575728,1 Star,0,Germany,Augsburg,0,0,3,1,0,1,3
Esszimmer im Oberschwabischen Hof,"Hauptstrasse 9, Schwendi, 88477, Germany","Schwendi, Germany",3,"Modern Cuisine, French Contemporary",9.975686,48.1759617,1 Star,0,Germany,Schwendi,0,0,1,1,0,1,3
Restaurant 1950,"Aichelauer Straße 6, Hayingen, 72534, Germany","Hayingen, Germany",4,"Regional Cuisine, Modern Cuisine",9.4323725,48.3201555,1 Star,1,Germany,Hayingen,0,0,1,1,0,1,3
Shiraz,"Einern 120, Wuppertal, 42279, Germany","Wuppertal, Germany",4,"Creative, International",7.2117775,51.3017681,1 Star,0,Germany,Wuppertal,0,0,0,1,0,1,3
Oben,"Am Kohlhof 5, Heidelberg, 69117, Germany","Heidelberg, Germany",4,"Creative, Seasonal Cuisine",8.7356572,49.38722,1 Star,1,Germany,Heidelberg,0,0,7,1,0,1,3
Heiderand,"Ullersdorfer Platz 4, Dresden, 01324, Germany","Dresden, Germany",3,Modern Cuisine,13.855478,51.0623119,1 Star,0,Germany,Dresden,0,0,1,1,0,1,3
Bricole,"Senefelderstraße 30, Berlin, 10437, Germany","Berlin, Germany",4,"Modern French, Asian Influences",13.4224087,52.5410035,1 Star,0,Germany,Berlin,0,0,35,1,0,1,3
Frieda,"Menckestraße 48, Leipzig, 04155, Germany","Leipzig, Germany",4,"Creative, Farm to table",12.3624098,51.3594485,1 Star,0,Germany,Leipzig,0,0,7,1,0,1,3
Irma la Douce,"Potsdamer Straße 102, Berlin, 10785, Germany","Berlin, Germany",3,Classic French,13.3638583,52.5014034,1 Star,0,Germany,Berlin,0,0,60,1,0,1,3
bidlabu,"Kleine Bockenheimer Straße 14, Frankfurt on the Main, 60313, Germany","Frankfurt on the Main, Germany",3,"Farm to table, Contemporary",8.6742761,50.1142593,1 Star,0,Germany,Frankfurt on the Main,0,0,23,1,0,1,3
La Cuisine Rademacher,"Dellbrücker Hauptstraße 176, Cologne, 51069, Germany","Cologne, Germany",4,"Modern French, Seasonal Cuisine",7.0689759,50.9803037,1 Star,0,Germany,Cologne,0,0,1,1,0,1,3
KUNO 1408,"Neubaustraße 7, Würzburg, 97070, Germany","Würzburg, Germany",4,"Creative, Modern Cuisine",9.9305144,49.7904688,1 Star,0,Germany,Würzburg,0,0,2,1,0,1,3
Der Zauberlehrling,"Rosenstraße 38, Stuttgart, 70182, Germany","Stuttgart, Germany",3,"Creative, Seasonal Cuisine",9.1843065,48.7740472,1 Star,0,Germany,Stuttgart,0,0,14,1,0,1,3
Lamm Rosswag,"Rathausstraße 4, Vaihingen an der Enz, 71665, Germany","Vaihingen an der Enz, Germany",4,"Modern Cuisine, Creative",8.916984,48.936683,1 Star,0,Germany,Vaihingen an der Enz,0,0,0,1,0,1,3
Tipken's by Nils Henkel,"Am Tipkenhoog 18, Keitum, 25980, Germany","Keitum, Germany",4,"Contemporary, Modern Cuisine",8.3780691,54.8907917,1 Star,0,Germany,Keitum,0,0,2,1,0,1,3
La Vallee Verte,"Hohenhaus 1, Herleshausen, 37293, Germany","Herleshausen, Germany",4,"Modern Cuisine, French",10.0801288,51.0410088,1 Star,0,Germany,Herleshausen,0,0,1,1,0,1,3
Muhle,"Unterer Mühlenweg 13, Schluchsee, 79859, Germany","Schluchsee, Germany",4,"Modern French, Creative",8.1905051,47.8213714,1 Star,0,Germany,Schluchsee,0,0,2,1,0,1,3
Le Frankenberg,"Schloß Frankenberg 1, Weigenheim, 97215, Germany","Weigenheim, Germany",4,"Creative, Seasonal Cuisine",10.2661417,49.608438,1 Star,0,Germany,Weigenheim,0,0,0,1,0,1,3
Sawito,"Spandauer Straße 14, Falkensee, 14612, Germany","Falkensee, Germany",3,"Farm to table, International",13.112693,52.5645708,1 Star,0,Germany,Falkensee,0,0,0,1,0,1,3
Johanns,"Marktplatz 24, Waldkirchen, 94065, Germany","Waldkirchen, Germany",4,"Modern Cuisine, Country cooking",13.6007906,48.729862,1 Star,0,Germany,Waldkirchen,0,0,0,1,0,1,3
freustil,"Zeppelinstraße 8, Ostseebad Binz, 18609, Germany","Ostseebad Binz, Germany",3,Creative,13.6117968,54.4012638,1 Star,0,Germany,Ostseebad Binz,0,0,0,1,0,1,3
Reuter,"Bleichstraße 3, Rheda-Wiedenbrück, 33378, Germany","Rheda-Wiedenbrück, Germany",4,"Modern French, Creative",8.2912568,51.8540706,1 Star,0,Germany,Rheda-Wiedenbrück,0,0,1,1,0,1,3
Die Brasserie,"Landauer Straße 105, Pirmasens, 66953, Germany","Pirmasens, Germany",4,"Classic Cuisine, Contemporary",7.6202732,49.1947507,1 Star,0,Germany,Pirmasens,0,0,0,1,0,1,3
Gourmet-Restaurant Der Butt,"Am Yachthafen 1, Rostock, 18119, Germany","Rostock, Germany",4,"Modern Cuisine, Creative",12.0992982,54.1795174,1 Star,0,Germany,Rostock,0,0,0,1,0,1,3
Atelier Sanssouci,"Augustusweg 48, Radebeul, 01445, Germany","Radebeul, Germany",4,Modern Cuisine,13.6753756,51.1086096,1 Star,0,Germany,Radebeul,0,0,0,1,0,1,3
Kaupers Restaurant im Kapellenhof,"Kapellenstraße 18a, Selzen, 55278, Germany","Selzen, Germany",4,"Modern Cuisine, Creative",8.2551053,49.8639732,1 Star,0,Germany,Selzen,0,0,0,1,0,1,3
Hofstube Deimann,"Alte Handelsstraße 5, Schmallenberg, 57392, Germany","Schmallenberg, Germany",4,"Modern Cuisine, Seasonal Cuisine",8.3407164,51.1595842,1 Star,0,Germany,Schmallenberg,0,0,1,1,0,1,3
ROTER HAHN by Maximilian Schmidt,"Rote-Hahnen-Gasse 10, Regensburg, 93047, Germany","Regensburg, Germany",4,Modern Cuisine,12.0934977,49.0189139,1 Star,0,Germany,Regensburg,0,0,6,1,0,1,3
1789,"Tonbachstraße 237, Baiersbronn, 72270, Germany","Baiersbronn, Germany",4,"Modern Cuisine, Asian Influences",8.3582841,48.5369525,1 Star,0,Germany,Baiersbronn,0,0,5,1,0,1,3
DIE GOURMET STUBE im Gasthaus Hummel,"Heitzenhofener Straße 16, Duggendorf, 93182, Germany","Duggendorf, Germany",4,"Farm to table, Seasonal Cuisine",11.9136635,49.1161842,1 Star,0,Germany,Duggendorf,0,0,0,1,0,1,3
Masters,"Lindenallee 1, Blankenhain, 99444, Germany","Blankenhain, Germany",4,"Modern French, International",11.3422232,50.8747844,1 Star,0,Germany,Blankenhain,0,0,1,1,0,1,3
Alte Baiz,"Hauptstraße 2, Neuhausen, 75242, Germany","Neuhausen, Germany",4,"Modern Cuisine, Creative",8.7698838,48.8182484,1 Star,0,Germany,Neuhausen,0,0,2,1,0,1,3
Kesselhaus,"Neulandstraße 12, Osnabrück, 49084, Germany","Osnabrück, Germany",4,"Creative, Modern Cuisine",8.0642438,52.2653824,1 Star,0,Germany,Osnabrück,0,0,2,1,0,1,3
Aska,"Watmarkt 5, Regensburg, 93047, Germany","Regensburg, Germany",4,"Japanese, Sushi",12.0963365,49.0200415,1 Star,0,Germany,Regensburg,0,0,6,1,0,1,3
Traube,"Alemannenstraße 19, Efringen-Kirchen, 79588, Germany","Efringen-Kirchen, Germany",4,"Modern Cuisine, Creative",7.5398759,47.6909385,1 Star,1,Germany,Efringen-Kirchen,0,0,1,1,0,1,3
Admiral,"Leistadter Straße 6, Weisenheim am Berg, 67273, Germany","Weisenheim am Berg, Germany",4,"Contemporary, Modern Cuisine",8.1545397,49.5126055,1 Star,0,Germany,Weisenheim am Berg,0,0,5,1,0,1,3
Alte Uberfahrt,"Fischerstraße 48b, Werder, 14542, Germany","Werder, Germany",4,"Modern Cuisine, Seasonal Cuisine",12.9449636,52.3797969,1 Star,1,Germany,Werder,0,0,0,1,0,1,3
Ente,"Kaiser-Friedrich-Platz 3, Wiesbaden, 65183, Germany","Wiesbaden, Germany",4,"Creative, Seasonal Cuisine",8.2438995,50.0849814,1 Star,0,Germany,Wiesbaden,0,0,3,1,0,1,3
ANIMA,"In Wöhrden 5, Tuttlingen, 78532, Germany","Tuttlingen, Germany",4,"Creative, Modern Cuisine",8.82098,47.9863428,1 Star,0,Germany,Tuttlingen,0,0,0,1,0,1,3
Restaurant auf Schloss Filseck,"Filseck 1, Uhingen, 73066, Germany","Uhingen, Germany",4,"Mediterranean Cuisine, Farm to table",9.6048158,48.7000691,1 Star,0,Germany,Uhingen,0,0,0,1,0,1,3
Orangerie,"Strandallee 73, Timmendorfer Strand, 23669, Germany","Timmendorfer Strand, Germany",4,Classic French,10.7798458,54.0007295,1 Star,0,Germany,Timmendorfer Strand,0,0,1,1,0,1,3
Schwitzer's Gourmet-Restaurant,"Etzenroter Straße 4, Waldbronn, 76337, Germany","Waldbronn, Germany",4,"Classic Cuisine, Contemporary",8.4748202,48.9209362,1 Star,0,Germany,Waldbronn,0,0,2,1,0,1,3
Schwarzer Adler,"Badbergstraße 23, Vogtsburg im Kaiserstuhl, 79235, Germany","Vogtsburg im Kaiserstuhl, Germany",4,Classic French,7.6560639,48.0952162,1 Star,0,Germany,Vogtsburg im Kaiserstuhl,0,0,4,1,0,1,3
BODENDORF'S,"Boy-Nielsen-Straße 10, Tinnum, 25980, Germany","Tinnum, Germany",4,"Modern French, Seasonal Cuisine",8.3328345,54.9010855,1 Star,0,Germany,Tinnum,0,0,2,1,0,1,3
Genuss-Apotheke,"Schönaugasse 11, Bad Säckingen, 79713, Germany","Bad Säckingen, Germany",4,"Creative, Modern Cuisine",7.9480494,47.551733,1 Star,0,Germany,Bad Säckingen,0,0,1,1,0,1,3
Hupperts,"Gebelsbergstraße 97, Stuttgart, 70199, Germany","Stuttgart, Germany",4,"Seasonal Cuisine, Modern Cuisine",9.151474,48.7614095,1 Star,0,Germany,Stuttgart,0,0,14,1,0,1,3
Gourmetrestaurant Berlins Krone,"Marktplatz 2, Bad Teinach-Zavelstein, 75385, Germany","Bad Teinach-Zavelstein, Germany",4,"Modern French, Seasonal Cuisine",8.6892208,48.6940108,1 Star,0,Germany,Bad Teinach-Zavelstein,0,0,0,1,0,1,3
Delice,"Hauptstätter Straße 61, Stuttgart, 70178, Germany","Stuttgart, Germany",4,"Creative, Mediterranean Cuisine",9.1762495,48.7702819,1 Star,0,Germany,Stuttgart,0,0,14,1,0,1,3
Rebers Pflug,"Weckriedener Straße 2, Schwäbisch Hall, 74523, Germany","Schwäbisch Hall, Germany",3,Farm to table,9.7569147,49.1231266,1 Star,0,Germany,Schwäbisch Hall,0,0,2,1,0,1,3
Gourmetrestaurant Nico Burkhardt,"Höllgasse 9, Schorndorf, 73614, Germany","Schorndorf, Germany",4,"Modern French, Farm to table",9.528005,48.8062032,1 Star,0,Germany,Schorndorf,0,0,0,1,0,1,3
Eisenbahn,"Karl-Kurz-Straße 2, Schwäbisch Hall, 74523, Germany","Schwäbisch Hall, Germany",4,Modern French,9.7702979,49.0988122,1 Star,0,Germany,Schwäbisch Hall,0,0,2,1,0,1,3
Aubergine,"Münchner Straße 17, Starnberg, 82319, Germany","Starnberg, Germany",4,"Creative, International",11.3498541,48.0017757,1 Star,0,Germany,Starnberg,0,0,0,1,0,1,3
KAI3,"Am Kai 3, Hörnum, 25997, Germany","Hörnum, Germany",4,"Modern Cuisine, Creative",8.2962752,54.7611439,1 Star,0,Germany,Hörnum,0,0,0,1,0,1,3
DiVa,"Strandallee 146, Scharbeutz, 23683, Germany","Scharbeutz, Germany",4,"Modern French, International",10.7702772,54.0099541,1 Star,0,Germany,Scharbeutz,0,0,1,1,0,1,3
kochZIMMER in der Gaststatte zur Ratswaage,"Am Neuen Markt 10, Potsdam, 14467, Germany","Potsdam, Germany",4,"Modern Cuisine, Farm to table",13.0575786,52.3960758,1 Star,0,Germany,Potsdam,0,0,1,1,0,1,3
Wirtshaus Meyers Keller,"Marienhöhe 8, Nördlingen, 86720, Germany","Nördlingen, Germany",3,"Farm to table, Country cooking",10.493869,48.8413149,1 Star,0,Germany,Nördlingen,0,0,0,1,0,1,3
Wonka,"Johannisstraße 38, Nuremberg, 90419, Germany","Nuremberg, Germany",4,"Creative, Asian Influences",11.0648669,49.4586974,1 Star,0,Germany,Nuremberg,0,0,15,1,0,1,3
Seesteg,"Damenpfad 36a, Norderney, 26548, Germany","Norderney, Germany",3,"Modern Cuisine, International",7.1389104,53.7075465,1 Star,0,Germany,Norderney,0,0,3,1,0,1,3
Balthasar,"Warburger Straße 28, Paderborn, 33098, Germany","Paderborn, Germany",4,"Modern French, Farm to table",8.7638033,51.7152518,1 Star,0,Germany,Paderborn,0,0,0,1,0,1,3
Silberdistel,"Sonnenalp 1, Ofterschwang, 87527, Germany","Ofterschwang, Germany",4,Classic Cuisine,10.2570174,47.4904129,1 Star,0,Germany,Ofterschwang,0,0,1,1,0,1,3
ESS ATELIER STRAUSS,"Kirchstraße 1, Oberstdorf, 87561, Germany","Oberstdorf, Germany",4,"Classic Cuisine, Modern Cuisine",10.2783328,47.4085094,1 Star,0,Germany,Oberstdorf,0,0,4,1,0,1,3
Landhaus Scherrer,"Elbchaussee 130, Hamburg, 22763, Germany","Hamburg, Germany",4,"Classic Cuisine, Regional Cuisine",9.9170486,53.5459914,1 Star,1,Germany,Hamburg,0,0,31,1,0,1,3
Ratsstuben,"Mühlenstraße 3, Haltern am See, 45721, Germany","Haltern am See, Germany",4,"Modern Cuisine, Seasonal Cuisine",7.1873302,51.7433982,1 Star,0,Germany,Haltern am See,0,0,0,1,0,1,3
Eckert | Fine Dining,"Basler Straße 20, Grenzach-Wyhlen, 79639, Germany","Grenzach-Wyhlen, Germany",4,"Creative, Modern Cuisine",7.658225,47.5532458,1 Star,0,Germany,Grenzach-Wyhlen,0,0,5,1,0,1,3
Philipp Soldan,"Marktplatz 2, Frankenberg, 35066, Germany","Frankenberg, Germany",4,"Creative, Modern Cuisine",8.8017264,51.0592147,1 Star,0,Germany,Frankenberg,0,0,1,1,0,1,3
Landhaus Feckl,"Keltenweg 1, Ehningen, 71139, Germany","Ehningen, Germany",3,"Classic French, Seasonal Cuisine",8.9547833,48.661195,1 Star,0,Germany,Ehningen,0,0,0,1,0,1,3
Im Schiffchen,"Kaiserswerther Markt 9, Düsseldorf, 40489, Germany","Düsseldorf, Germany",4,Classic Cuisine,6.7338663,51.3015121,1 Star,0,Germany,Düsseldorf,0,0,0,1,0,1,3
Colombi Restaurant Zirbelstube,"Rotteckring 16, Freiburg im Breisgau, 79098, Germany","Freiburg im Breisgau, Germany",4,"Classic French, Mediterranean Cuisine",7.8475694,47.9971187,1 Star,0,Germany,Freiburg im Breisgau,0,0,9,1,0,1,3
Erbprinz,"Rheinstraße 1, Ettlingen, 76275, Germany","Ettlingen, Germany",4,"Classic Cuisine, International",8.4045683,48.941273,1 Star,0,Germany,Ettlingen,0,0,3,1,0,1,3
Maerz - Das Restaurant,"Kronenbergstraße 14, Bietigheim-Bissingen, 74321, Germany","Bietigheim-Bissingen, Germany",4,"Creative French, Modern Cuisine",9.1290315,48.9609392,1 Star,0,Germany,Bietigheim-Bissingen,0,0,1,1,0,1,3
Verbene,"Brunnenhof Königspfalz, Koblenz, 56068, Germany","Koblenz, Germany",4,"Modern Cuisine, Farm to table",7.5967303,50.3613819,1 Star,0,Germany,Koblenz,0,0,3,1,0,1,3
L'etable,"Linggplatz 11, Bad Hersfeld, 36251, Germany","Bad Hersfeld, Germany",3,"Classic Cuisine, Seasonal Cuisine",9.70618,50.8677435,1 Star,0,Germany,Bad Hersfeld,0,0,1,1,0,1,3
bi:braud,"Büchsengasse 20, Ulm, 89073, Germany","Ulm, Germany",3,"Contemporary, Farm to table",9.9924975,48.4005362,1 Star,0,Germany,Ulm,0,0,5,1,0,1,3
Werneckhof Sigi Schelling,"Werneckstraße 11, Munich, 80802, Germany","Munich, Germany",4,French Contemporary,11.5884325,48.1592227,1 Star,0,Germany,Munich,0,0,61,1,0,1,3
Mod by Sven Nothel,"Grafschafter Straße 197a, Duisburg, 47199, Germany","Duisburg, Germany",4,"Modern Cuisine, Seasonal Cuisine",6.6674968,51.4770801,1 Star,0,Germany,Duisburg,0,0,1,1,0,1,3
Das Grace,"Fördepromenade 30, Flensburg, 24944, Germany","Flensburg, Germany",4,"Modern Cuisine, Farm to table",9.4556862,54.8119855,1 Star,1,Germany,Flensburg,0,0,4,1,0,1,3
Mountain Hub Gourmet,"Terminalstraße Mitte 20, Munich, 85356, Germany","Munich, Germany",4,"Modern Cuisine, Creative",11.7886069,48.3552067,1 Star,0,Germany,Munich,0,0,0,1,0,1,3
"Gourmetrestaurant ""fine dining RS""","Burg Staufeneck 1, Salach, 73084, Germany","Salach, Germany",4,"French Contemporary, Modern Cuisine",9.7666002,48.6917367,1 Star,0,Germany,Salach,0,0,0,1,0,1,3
Nose & Belly,"Heilig-Kreuz-Straße 10, Augsburg, 86152, Germany","Augsburg, Germany",3,"Innovative, Regional Cuisine",10.892181,48.3716097,1 Star,0,Germany,Augsburg,0,0,3,1,0,1,3
HAEBEL,"Paul-Roosen-Straße 31, Hamburg, 22767, Germany","Hamburg, Germany",4,"Modern Cuisine, Seasonal Cuisine",9.9574392,53.5532432,1 Star,1,Germany,Hamburg,0,0,45,1,0,1,3
Kulmeck by Tom Wickboldt,"Kulmstraße 17, Heringsdorf, 17424, Germany","Heringsdorf, Germany",4,"Modern Cuisine, Creative",14.1610478,53.9597826,1 Star,0,Germany,Heringsdorf,0,0,4,1,0,1,3
Handwerk,"Altenbekener Damm 17, Hanover, 30173, Germany","Hanover, Germany",4,"Modern Cuisine, Creative",9.763843,52.356735,1 Star,0,Germany,Hanover,0,0,6,1,0,1,3
Zeik,"Sierichstraße 112, Hamburg, 22299, Germany","Hamburg, Germany",4,"Modern Cuisine, Farm to table",10.001535,53.5889628,1 Star,1,Germany,Hamburg,0,0,31,1,0,1,3
Michaels Leitenberg,"Weiherweg 3, Frasdorf, 83112, Germany","Frasdorf, Germany",4,"Modern Cuisine, Creative",12.3074069,47.8046083,1 Star,0,Germany,Frasdorf,0,0,5,1,0,1,3
PAVO,"Auf dem Falkenstein 1, Pfronten, 87459, Germany","Pfronten, Germany",4,"Modern Cuisine, Classic Cuisine",10.5918519,47.5700348,1 Star,0,Germany,Pfronten,0,0,2,1,0,1,3
Weinstock,"Hauptstraße 12, Volkach, 97332, Germany","Volkach, Germany",4,"Creative, Farm to table",10.2267305,49.8649712,1 Star,0,Germany,Volkach,0,0,1,1,0,1,3
Maltes hidden kitchen,"Gernsbacher Straße 24, Baden-Baden, 76530, Germany","Baden-Baden, Germany",4,"Modern Cuisine, Creative",8.2414442,48.761902,1 Star,0,Germany,Baden-Baden,0,0,7,1,0,1,3
Pottkind,"Darmstädter Straße 9, Cologne, 50678, Germany","Cologne, Germany",4,"Creative, Modern Cuisine",6.9609491,50.9193944,1 Star,0,Germany,Cologne,0,0,26,1,0,1,3
Gasthof Krone,"Nürtinger Straße 14, Waldenbuch, 71111, Germany","Waldenbuch, Germany",3,Classic Cuisine,9.1323653,48.6382832,1 Star,0,Germany,Waldenbuch,0,0,1,1,0,1,3
Seestern,"Friedrichsau 50, Ulm, 89073, Germany","Ulm, Germany",4,"Modern French, Seasonal Cuisine",10.012923,48.412238,1 Star,0,Germany,Ulm,0,0,5,1,0,1,3
Zeitwerk,"Breite Straße 53a, Wernigerode, 38855, Germany","Wernigerode, Germany",4,"Creative, Modern Cuisine",10.7890914,51.8353677,1 Star,0,Germany,Wernigerode,0,0,1,1,0,1,3
Haus Stemberg ANNO 1864,"Kuhlendahler Straße 295, Velbert, 42553, Germany","Velbert, Germany",3,"Farm to table, Modern Cuisine",7.0914851,51.3313091,1 Star,0,Germany,Velbert,0,0,0,1,0,1,3
ZUR WEINSTEIGE,"Hohenheimer Straße 30, Stuttgart, 70184, Germany","Stuttgart, Germany",4,"Seasonal Cuisine, Japanese Contemporary",9.1870889,48.7710222,1 Star,0,Germany,Stuttgart,0,0,14,1,0,1,3
The O'ROOM,"Kulmstraße 33, Heringsdorf, 17424, Germany","Heringsdorf, Germany",4,"Creative, Seasonal Cuisine",14.1674545,53.956993,1 Star,0,Germany,Heringsdorf,0,0,4,1,0,1,3
Bachofer,"Marktplatz 6, Waiblingen, 71332, Germany","Waiblingen, Germany",4,"Creative, Fusion",9.316526,48.8323223,1 Star,0,Germany,Waiblingen,0,0,6,1,0,1,3
Hirsch,"Im Dorf 12, Sonnenbühl, 72820, Germany","Sonnenbühl, Germany",4,"Classic Cuisine, Farm to table",9.1942682,48.3505143,1 Star,0,Germany,Sonnenbühl,0,0,1,1,0,1,3
Wielandshohe,"Alte Weinsteige 71, Stuttgart, 70597, Germany","Stuttgart, Germany",3,"Classic French, Regional Cuisine",9.1706992,48.7572078,1 Star,0,Germany,Stuttgart,0,0,13,1,0,1,3
5,"Bolzstraße 8, Stuttgart, 70173, Germany","Stuttgart, Germany",4,Modern Cuisine,9.1780757,48.7800231,1 Star,0,Germany,Stuttgart,0,0,14,1,0,1,3
Haubentaucher,"Seestraße 30, Rottach-Egern, 83700, Germany","Rottach-Egern, Germany",3,"International, Farm to table",11.766113,47.6953833,1 Star,0,Germany,Rottach-Egern,0,0,7,1,0,1,3
Philipp,"Hauptstraße 12, Sommerhausen, 97286, Germany","Sommerhausen, Germany",4,"Modern French, Classic Cuisine",10.0242588,49.7056147,1 Star,0,Germany,Sommerhausen,0,0,1,1,0,1,3
Restaurant Alexander Huber,"Hofmark 3, Pleiskirchen, 84568, Germany","Pleiskirchen, Germany",4,"Modern Cuisine, Country cooking",12.5964184,48.3069731,1 Star,0,Germany,Pleiskirchen,0,0,0,1,0,1,3
Entenstuben,"Schranke 9, Nuremberg, 90489, Germany","Nuremberg, Germany",4,"Modern Cuisine, Farm to table",11.0939143,49.4535946,1 Star,0,Germany,Nuremberg,0,0,14,1,0,1,3
Storstad,"Watmarkt 5, Regensburg, 93047, Germany","Regensburg, Germany",4,"Creative, Farm to table",12.0963527,49.0200421,1 Star,0,Germany,Regensburg,0,0,6,1,0,1,3
Petit Amour,"Spritzenplatz 11, Hamburg, 22765, Germany","Hamburg, Germany",4,"Contemporary, Classic Cuisine",9.930977,53.5513517,1 Star,0,Germany,Hamburg,0,0,42,1,0,1,3
Stephans Stuben by Marco Langer,"Bahnhofstraße 65, Neu-Ulm, 89231, Germany","Neu-Ulm, Germany",4,"Creative, Farm to table",10.0088519,48.3969664,1 Star,0,Germany,Neu-Ulm,0,0,5,1,0,1,3
BOK Restaurant Brust oder Keule,"Melchersstraße 32, Münster, 48149, Germany","Münster, Germany",3,"Farm to table, Creative",7.6191805,51.9719525,1 Star,0,Germany,Münster,0,0,4,1,0,1,3
Heimatjuwel,"Stellinger Weg 47, Hamburg, 20255, Germany","Hamburg, Germany",3,"Creative, Country cooking",9.9476808,53.5801378,1 Star,1,Germany,Hamburg,0,0,40,1,0,1,3
Oettinger's Restaurant,"Fellbacher Straße 2, Fellbach, 70736, Germany","Fellbach, Germany",4,"Modern French, Country cooking",9.2634674,48.8339908,1 Star,0,Germany,Fellbach,0,0,4,1,0,1,3
Setzkasten,"Berliner Allee 52, Düsseldorf, 40212, Germany","Düsseldorf, Germany",4,"Modern Cuisine, International",6.782331,51.2195261,1 Star,0,Germany,Düsseldorf,0,0,24,1,0,1,3
Agata's,"Kirchfeldstraße 59, Düsseldorf, 40217, Germany","Düsseldorf, Germany",4,"Creative, Seasonal Cuisine",6.7762351,51.2123287,1 Star,0,Germany,Düsseldorf,0,0,24,1,0,1,3
1876 Daniel Dal-Ben,"Grunerstraße 42a, Düsseldorf, 40239, Germany","Düsseldorf, Germany",4,"Creative, Modern Cuisine",6.8020825,51.2436309,1 Star,0,Germany,Düsseldorf,0,0,24,1,0,1,3
Jean,"Wilhelmstraße 13, Eltville am Rhein, 65343, Germany","Eltville am Rhein, Germany",3,"Classic French, Mediterranean Cuisine",8.1215273,50.0273198,1 Star,0,Germany,Eltville am Rhein,0,0,5,1,0,1,3
Carmelo Greco,"Ziegelhüttenweg 1, Frankfurt on the Main, 60598, Germany","Frankfurt on the Main, Germany",4,Italian,8.6825698,50.0946391,1 Star,0,Germany,Frankfurt on the Main,0,0,23,1,0,1,3
Schwarzer Hahn,"Am Marktplatz 1, Deidesheim, 67146, Germany","Deidesheim, Germany",4,"Modern French, Seasonal Cuisine",8.1874237,49.4082094,1 Star,0,Germany,Deidesheim,0,0,7,1,0,1,3
Nagaya,"Klosterstraße 42, Düsseldorf, 40211, Germany","Düsseldorf, Germany",4,Japanese,6.7863334,51.2253636,1 Star,0,Germany,Düsseldorf,0,0,24,1,0,1,3
BjornsOx,"Bahnhofstraße 2, Dermbach, 36466, Germany","Dermbach, Germany",4,"Creative, Farm to table",10.1198493,50.7161353,1 Star,1,Germany,Dermbach,0,0,0,1,0,1,3
Friedrich Franz,"Prof.-Dr.-Vogel-Straße 6, Bad Doberan, 18209, Germany","Bad Doberan, Germany",4,"Modern Cuisine, Seasonal Cuisine",11.8423661,54.143778,1 Star,0,Germany,Bad Doberan,0,0,0,1,0,1,3
Lorenz Adlon Esszimmer,"Unter den Linden 77, Berlin, 10117, Germany","Berlin, Germany",4,Creative,13.380011,52.5159333,1 Star,0,Germany,Berlin,0,0,60,1,0,1,3
La Becasse,"Hanbrucher Straße 1, Aachen, 52064, Germany","Aachen, Germany",4,Classic French,6.069238,50.7702641,1 Star,0,Germany,Aachen,0,0,3,1,0,1,3
Mittermeier,"Vorm Würzburger Tor 7, Rothenburg ob der Tauber, 91541, Germany","Rothenburg ob der Tauber, Germany",4,"Modern Cuisine, Farm to table",10.1848018,49.380077,1 Star,0,Germany,Rothenburg ob der Tauber,0,0,1,1,0,1,3
Falconera,"Zum Mühlental 1, Öhningen, 78337, Germany","Öhningen, Germany",3,"Classic French, Farm to table",8.8982028,47.685155,1 Star,0,Germany,Öhningen,0,0,1,1,0,1,3
Waidwerk,"Winterstraße 15, Nuremberg, 90431, Germany","Nuremberg, Germany",4,"Modern Cuisine, Farm to table",11.0212737,49.4354114,1 Star,0,Germany,Nuremberg,0,0,12,1,0,1,3
Buchner Welchenberg 1658,"Freymannstraße 15, Niederwinkling, 94559, Germany","Niederwinkling, Germany",4,"Modern Cuisine, Classic Cuisine",12.7757295,48.8765829,1 Star,0,Germany,Niederwinkling,0,0,0,1,0,1,3
Piment,"Lehmweg 29, Hamburg, 20251, Germany","Hamburg, Germany",4,"Creative, North African",9.9795367,53.5822226,1 Star,0,Germany,Hamburg,0,0,42,1,0,1,3
Werners Restaurant,"Schloss Eberstein 1, Gernsbach, 76593, Germany","Gernsbach, Germany",4,"Classic French, International",8.342642,48.7495769,1 Star,0,Germany,Gernsbach,0,0,1,1,0,1,3
Russel's Landhaus,"Büdlicherbrück 1, Naurath/Wald, 54426, Germany","Naurath/Wald, Germany",4,"Creative, Farm to table",6.8921194,49.7682481,1 Star,0,Germany,Naurath/Wald,0,0,1,1,0,1,3
Jellyfish,"Weidenallee 12, Hamburg, 20357, Germany","Hamburg, Germany",4,"Seafood, Modern Cuisine",9.965481,53.5666172,1 Star,0,Germany,Hamburg,0,0,46,1,0,1,3
Muhlenhelle,"Hohler Straße 1, Gummersbach, 51645, Germany","Gummersbach, Germany",4,Modern French,7.5311837,50.9832866,1 Star,0,Germany,Gummersbach,0,0,1,1,0,1,3
Erno's Bistro,"Liebigstraße 15, Frankfurt on the Main, 60323, Germany","Frankfurt on the Main, Germany",4,"Classic French, Modern Cuisine",8.6659109,50.1190432,1 Star,0,Germany,Frankfurt on the Main,0,0,23,1,0,1,3
Alt Wyk,"Große Straße 4, Wyk, 25938, Germany","Wyk, Germany",4,"Classic Cuisine, Seasonal Cuisine",8.5709235,54.690147,1 Star,0,Germany,Wyk,0,0,0,1,0,1,3
Hannappel,"Dahlhauser Straße 173, Essen, 45279, Germany","Essen, Germany",4,"Modern Cuisine, Seasonal Cuisine",7.1050518,51.4370622,1 Star,0,Germany,Essen,0,0,0,1,0,1,3
Seven Swans,"Mainkai 4, Frankfurt on the Main, 60311, Germany","Frankfurt on the Main, Germany",4,"Vegan, Creative",8.6871455,50.1096762,1 Star,1,Germany,Frankfurt on the Main,0,0,23,1,0,1,3
Alte Schule - Klassenzimmer,"Zur Alten Schule 5, Feldberger Seenlandschaft, 17258, Germany","Feldberger Seenlandschaft, Germany",4,"Modern Cuisine, Farm to table",13.5034577,53.3364693,1 Star,1,Germany,Feldberger Seenlandschaft,0,0,0,1,0,1,3
Clara - Restaurant im Kaisersaal,"Futterstraße 15, Erfurt, 99084, Germany","Erfurt, Germany",4,Modern Cuisine,11.0337381,50.979178,1 Star,0,Germany,Erfurt,0,0,3,1,0,1,3
Genuss-Atelier,"Bautzner Straße 149, Dresden, 01099, Germany","Dresden, Germany",3,"Modern Cuisine, Contemporary",13.7761213,51.0676334,1 Star,0,Germany,Dresden,0,0,7,1,0,1,3
Das garbo zum Lowen,"Hauptstraße 51, Eggenstein-Leopoldshafen, 76344, Germany","Eggenstein-Leopoldshafen, Germany",4,"Farm to table, Classic French",8.3879792,49.0779967,1 Star,0,Germany,Eggenstein-Leopoldshafen,0,0,1,1,0,1,3
Yoshi by Nagaya,"Kreuzstraße 17, Düsseldorf, 40213, Germany","Düsseldorf, Germany",4,Japanese,6.7857395,51.2242643,1 Star,0,Germany,Düsseldorf,0,0,24,1,0,1,3
Rosin,"Hervester Straße 18, Dorsten, 46286, Germany","Dorsten, Germany",4,"Creative, Contemporary",7.0132284,51.7191315,1 Star,0,Germany,Dorsten,0,0,0,1,0,1,3
Goldener Anker,"Lippetor 4, Dorsten, 46282, Germany","Dorsten, Germany",4,"Modern Cuisine, Classic French",6.9652779,51.6629515,1 Star,0,Germany,Dorsten,0,0,0,1,0,1,3
halbedel's Gasthaus,"Rheinallee 47, Bonn, 53173, Germany","Bonn, Germany",4,Modern French,7.1662272,50.6889689,1 Star,0,Germany,Bonn,0,0,3,1,0,1,3
die burg - fine dining,"Burgring 6, Donaueschingen, 78166, Germany","Donaueschingen, Germany",3,"Farm to table, Country cooking",8.5524568,47.9813093,1 Star,0,Germany,Donaueschingen,0,0,1,1,0,1,3
Sterneck,"Cuxhavener Straße 86, Cuxhaven, 27476, Germany","Cuxhaven, Germany",4,Creative,8.645506,53.886445,1 Star,0,Germany,Cuxhaven,0,0,1,1,0,1,3
SKYKITCHEN,"Landsberger Allee 106, Berlin, 10369, Germany","Berlin, Germany",4,Modern Cuisine,13.4565275,52.5282836,1 Star,0,Germany,Berlin,0,0,31,1,0,1,3
Yunico,"Am Bonner Bogen 1, Bonn, 53227, Germany","Bonn, Germany",4,"Japanese, Modern Cuisine",7.1525078,50.718668,1 Star,0,Germany,Bonn,0,0,3,1,0,1,3
tulus lotrek,"Fichtestraße 24, Berlin, 10967, Germany","Berlin, Germany",4,"Modern Cuisine, International",13.4137112,52.4893627,1 Star,0,Germany,Berlin,0,0,43,1,0,1,3
St. Andreas,"Altmarkt 1, Aue - Bad Schlema, 08280, Germany","Aue - Bad Schlema, Germany",4,"Modern Cuisine, Creative",12.7014864,50.5865356,1 Star,0,Germany,Aue - Bad Schlema,0,0,1,1,0,1,3
1570 - CASUAL FINE DINING,"Schwöbber 9, Aerzen, 31855, Germany","Aerzen, Germany",4,"Contemporary, Classic Cuisine",9.2520492,52.0692633,1 Star,0,Germany,Aerzen,0,0,1,1,0,1,3
Schattbuch,"Schattbucher Straße 10, Amtzell, 88279, Germany","Amtzell, Germany",3,"Modern Cuisine, Creative",9.757391,47.6950322,1 Star,0,Germany,Amtzell,0,0,0,1,0,1,3
Schlossberg,"Murgtalstraße 602, Baiersbronn, 72270, Germany","Baiersbronn, Germany",4,"Creative, Classic Cuisine",8.3838973,48.5970111,1 Star,0,Germany,Baiersbronn,0,0,0,1,0,1,3
Schwingshackl ESSKULTUR,"Rebling 3, Bernried, 94505, Germany","Bernried, Germany",4,Classic Cuisine,12.9259944,48.9296729,1 Star,0,Germany,Bernried,0,0,1,1,0,1,3
Restaurant Kunz,"Kirchstraße 22, Sankt Wendel, 66606, Germany","Sankt Wendel, Germany",3,Classic French,7.1122542,49.49596,1 Star,0,Germany,Sankt Wendel,0,0,0,1,0,1,3
pars Restaurant,"Grolmanstraße 53, Berlin, 10623, Germany","Berlin, Germany",4,Modern Cuisine,13.3213876,52.5074197,1 Star,0,Germany,Berlin,0,0,39,1,0,1,3
Restaurant Villa Merton,"Am Leonhardsbrunn 12, Frankfurt on the Main, 60487, Germany","Frankfurt on the Main, Germany",4,"Classic Cuisine, Modern Cuisine",8.6534434,50.1272242,1 Star,0,Germany,Frankfurt on the Main,0,0,23,1,0,1,3
Gasthaus Jakob,"Haigrub 19, Perasdorf, 94366, Germany","Perasdorf, Germany",4,"Classic Cuisine, Modern Cuisine",12.8257045,48.9672822,1 Star,0,Germany,Perasdorf,0,0,0,1,0,1,3
Wein- und Tafelhaus,"Moselpromenade 4, Trittenheim, 54349, Germany","Trittenheim, Germany",4,"Farm to table, Mediterranean Cuisine",6.9027898,49.8215136,1 Star,0,Germany,Trittenheim,0,0,1,1,0,1,3
Les Deux,"Maffeistraße 3a, Munich, 80333, Germany","Munich, Germany",4,"Modern French, Creative",11.5745402,48.1393613,1 Star,0,Germany,Munich,0,0,61,1,0,1,3
Eichhalde,"Stadtstraße 91, Freiburg im Breisgau, 79104, Germany","Freiburg im Breisgau, Germany",4,"Italian, Modern Cuisine",7.8647925,48.0067203,1 Star,0,Germany,Freiburg im Breisgau,0,0,10,1,0,1,3
Koer,"Maria-Louisen-Straße 3, Hamburg, 22301, Germany","Hamburg, Germany",4,"Creative, Modern Cuisine",9.9960681,53.5839548,1 Star,0,Germany,Hamburg,0,0,38,1,0,1,3
Hammerle's Restaurant,"Bliestalstraße 110a, Blieskastel, 66440, Germany","Blieskastel, Germany",4,"Modern French, Creative",7.2693768,49.2362942,1 Star,0,Germany,Blieskastel,0,0,1,1,0,1,3
Zur Tant,"Rheinbergstraße 49, Cologne, 51143, Germany","Cologne, Germany",3,"Classic Cuisine, Farm to table",7.0083312,50.851828,1 Star,0,Germany,Cologne,0,0,1,1,0,1,3
maximilian lorenz,"Johannisstraße 64, Cologne, 50668, Germany","Cologne, Germany",4,"Modern Cuisine, Farm to table",6.9607682,50.9445676,1 Star,0,Germany,Cologne,0,0,26,1,0,1,3
Winzerhof Stahl,"Lange Dorfstr. 21, Simmershofen, 97215, Germany","Simmershofen, Germany",4,"Modern Cuisine, Seasonal Cuisine",10.1045712,49.5232104,1 Star,0,Germany,Simmershofen,0,0,0,1,0,1,3
LA VIE by thomas buhner,"Schlüterstraße 1, Düsseldorf, 40235, Germany","Düsseldorf, Germany",4,"Modern Cuisine, Creative",6.8229278,51.2378037,1 Star,0,Germany,Düsseldorf,0,0,20,1,0,1,3
Marie,"Wedekindplatz 1, Hanover, 30161, Germany","Hanover, Germany",3,"French, Creative",9.7493772,52.3855784,1 Star,0,Germany,Hanover,0,0,6,1,0,1,3
Sahila - The Restaurant,"Kämmergasse 18, Cologne, 50676, Germany","Cologne, Germany",4,"International, Modern Cuisine",6.9527411,50.932944,1 Star,0,Germany,Cologne,0,0,26,1,0,1,3
GOLVET,"Potsdamer Straße 58, Berlin, 10785, Germany","Berlin, Germany",4,Creative,13.3676288,52.5055114,1 Star,0,Germany,Berlin,0,0,64,1,0,1,3
Nobelhart & Schmutzig,"Friedrichstraße 218, Berlin, 10969, Germany","Berlin, Germany",4,"Creative, Regional Cuisine",13.3906005,52.5051559,1 Star,1,Germany,Berlin,0,0,62,1,0,1,3
Hugos,"Budapester Straße 2, Berlin, 10787, Germany","Berlin, Germany",4,Modern Cuisine,13.3455401,52.506852,1 Star,0,Germany,Berlin,0,0,51,1,0,1,3
Bieberbau,"Durlacher Straße 15, Berlin, 10715, Germany","Berlin, Germany",3,"Modern Cuisine, International",13.3336378,52.4796363,1 Star,0,Germany,Berlin,0,0,33,1,0,1,3
Schwabenstube,"Stuttgarter Straße 2, Asperg, 71679, Germany","Asperg, Germany",3,"Classic Cuisine, International",9.1352183,48.9046036,1 Star,0,Germany,Asperg,0,0,2,1,0,1,3
PURS NEW NORDIC JAPANESE CUISINE,"Steinweg 30, Andernach, 56626, Germany","Andernach, Germany",4,"Fusion, Modern Cuisine",7.3973765,50.4389346,1 Star,0,Germany,Andernach,0,0,2,1,0,1,3
Bandol sur mer,"Torstraße 167, Berlin, 10115, Germany","Berlin, Germany",4,"Creative, Seasonal Cuisine",13.3953009,52.5290651,1 Star,1,Germany,Berlin,0,0,48,1,0,1,3
Bagatelle,"Zurlaubener Ufer 78, Trier, 54292, Germany","Trier, Germany",3,"French Contemporary, Creative",6.6349596,49.7648216,1 Star,0,Germany,Trier,0,0,3,1,0,1,3
St. Laurentiushof - Schockes Kuche,"Hauptstraße 21, Birkweiler, 76831, Germany","Birkweiler, Germany",4,"Modern Cuisine, Seasonal Cuisine",8.0346581,49.204023,1 Star,0,Germany,Birkweiler,0,0,3,1,0,1,3
Masa Japanese Cuisine,"Hanauer Landstraße 131, Frankfurt on the Main, 60314, Germany","Frankfurt on the Main, Germany",4,"Japanese, Japanese Contemporary",8.7129018,50.1119257,1 Star,0,Germany,Frankfurt on the Main,0,0,23,1,0,1,3
The Stage,"Karlsbader Straße 1A, Dortmund, 44225, Germany","Dortmund, Germany",4,"Modern Cuisine, Creative",7.4441431,51.4760427,1 Star,0,Germany,Dortmund,0,0,1,1,0,1,3
Tantris DNA,"Johann-Fichte-Straße 7, Munich, 80805, Germany","Munich, Germany",4,"Classic French, French",11.5882597,48.1697555,1 Star,0,Germany,Munich,0,0,58,1,0,1,3
Veles,"Kernstraße 29, Nuremberg, 90429, Germany","Nuremberg, Germany",4,"Modern Cuisine, Farm to table",11.0541219,49.4491082,1 Star,1,Germany,Nuremberg,0,0,15,1,0,1,3
SoulFood,"Unterer Markt 35, Auerbach in der Oberpfalz, 91275, Germany","Auerbach in der Oberpfalz, Germany",4,"International, Seasonal Cuisine",11.6295198,49.6930717,1 Star,0,Germany,Auerbach in der Oberpfalz,0,0,0,1,0,1,3
Le Jardin de France im Stahlbad,"Augustaplatz 2, Baden-Baden, 76530, Germany","Baden-Baden, Germany",4,"Classic French, Seasonal Cuisine",8.23999,48.7595,1 Star,0,Germany,Baden-Baden,0,0,7,1,0,1,3
IKO,"Stadtweg 38a, Osnabrück, 49086, Germany","Osnabrück, Germany",4,"Creative, Modern Cuisine",8.1281943,52.2697166,1 Star,0,Germany,Osnabrück,0,0,1,1,0,1,3
Le temple,"Saarstraße 2, Neuhütten, 54422, Germany","Neuhütten, Germany",4,Classic French,7.0114426,49.6425213,1 Star,0,Germany,Neuhütten,0,0,0,1,0,1,3
elements,"Königsbrücker Straße 96, Dresden, 01099, Germany","Dresden, Germany",4,Modern Cuisine,13.7608648,51.0808169,1 Star,0,Germany,Dresden,0,0,7,1,0,1,3
MIND,"Dachauer Straße 11, Markt Indersdorf, 85229, Germany","Markt Indersdorf, Germany",4,"Modern Cuisine, International",11.3773779,48.3614245,1 Star,0,Germany,Markt Indersdorf,0,0,0,1,0,1,3
Restaurant Brogsitter - Historisches Gasthaus Sanct Peter,"Walporzheimer Straße 134, Bad Neuenahr-Ahrweiler, 53474, Germany","Bad Neuenahr-Ahrweiler, Germany",4,"Modern Cuisine, International",7.0780355,50.5306779,1 Star,0,Germany,Bad Neuenahr-Ahrweiler,0,0,1,1,0,1,3
ZweiSinn Meiers | Fine Dining,"Äußere Sulzbacher Straße 118, Nuremberg, 90491, Germany","Nuremberg, Germany",4,"Creative, Modern Cuisine",11.1184521,49.4641108,1 Star,0,Germany,Nuremberg,0,0,14,1,0,1,3
Ontra's Gourmetstube,"Franz-Mayer-Straße 5a, Regensburg, 93053, Germany","Regensburg, Germany",4,"Modern Cuisine, International",12.1025791,49.0016893,1 Star,0,Germany,Regensburg,0,0,6,1,0,1,3
THE LISBETH,"Deichstraße 32, Hamburg, 20459, Germany","Hamburg, Germany",3,"Regional Cuisine, Modern Cuisine",9.9873002,53.5462616,1 Star,0,Germany,Hamburg,0,0,47,1,0,1,3
edl.eins,"Edlmairstraße 1, Deggendorf, 94469, Germany","Deggendorf, Germany",4,"Modern Cuisine, French",12.9575939,48.831168,1 Star,0,Germany,Deggendorf,0,0,0,1,0,1,3
midi,"Ernst-Heckel-Straße 4, Sankt Ingbert, 66386, Germany","Sankt Ingbert, Germany",3,"Creative, Seasonal Cuisine",7.1556823,49.2746882,1 Star,0,Germany,Sankt Ingbert,0,0,2,1,0,1,3
